id,name_bnetza,block_bnetza,name_uba,company,street,postcode,city,state,country_code,capacity_net_bnetza,capacity_gross_uba,fuel,technology,chp,chp_capacity_uba,commissioned,commissioned_original,retrofit,shutdown,status,type,lat,lon,eic_code_plant,eic_code_block,efficiency_data,efficiency_source,efficiency_estimate,energy_source_level_1,energy_source_level_2,energy_source_level_3,eeg,network_node,voltage,network_operator,merge_comment,comment
BNA0012a,"Werkskraftwerk Sappi Alfeld","Turbine 5",,"Sappi Alfeld GmbH","Mühlenmarsch 1",31061,Alfeld,Niedersachsen,DE,16,,"Biomass and biogas","Steam turbine",yes,,1988,1988,,,operating,,51.984761,9.822831,,,,,0.38,"Renewable energy",Bioenergy,"Biomass and biogas",yes,,6,"Überlandwerk Leinetal GmbH",,
BNA0021,"HKW Altenstadt",,,"Heizkraftwerk Altenstadt GmbH & Co. KG","Triebstraße 90",86972,Altenstadt,Bayern,DE,9.8,,"Biomass and biogas","Steam turbine",no,,1999,1999,,,operating,,47.79714,10.85874,,,,,0.38,"Renewable energy",Bioenergy,"Biomass and biogas",yes,,MS,"LEW Verteilnetz GmbH",,
BNA0027,"Zellstoff Stendal GmbH",-,Arneburg,"Zellstoff Stendal GmbH","Goldbecker Straße 1",39596,Arneburg,Sachsen-Anhalt,DE,138.9,147,"Biomass and biogas","Steam turbine",yes,600,2004,2004,,,operating,CHP,52.72713,12.01115,,,,,0.38,"Renewable energy",Bioenergy,"Biomass and biogas",yes,"DE0075603959600000E00000000013559 DE0075603959600000E00000000013560 DE0075603959600000E00000000013561",30,"Infrastrukturbetrieb der Stadt Arneburg","List matching type: Single UBA power plant assigned to single BNetzA power plant",
BNA1337b,"Blockheizkraftwerk 1","Blockheizkraftwerk 1",,"DS Smith Paper Deutschland GmbH","Weichertstr. 7",63741,Aschaffenburg,Bayern,DE,1.1,,"Biomass and biogas","Steam turbine",yes,,2005,2005,,,operating,,49.988218,9.155761,,,,,0.38,"Renewable energy",Bioenergy,"Biomass and biogas",yes,,20,"Aschaffenburger Versorgungs GmbH ",,
BNA1337c,"Blockheizkraftwerk 2","Blockheizkraftwerk 2",,"DS Smith Paper Deutschland GmbH","Weichertstr. 7",63741,Aschaffenburg,Bayern,DE,0.8,,"Biomass and biogas","Steam turbine",yes,,2010,2010,,,operating,,49.988218,9.155761,,,,,0.38,"Renewable energy",Bioenergy,"Biomass and biogas",yes,,20,"Aschaffenburger Versorgungs GmbH ",,
BNA0055,UTB,,,"Pfleiderer Baruth GmbH","An der Birkenpfuhlheide 3",15837,Baruth/Mark,Brandenburg,DE,16,,"Biomass and biogas","Steam turbine",yes,,2002,2002,,,operating,,52.07778,13.51725,,,,,0.38,"Renewable energy",Bioenergy,"Biomass and biogas",yes,"UTB/Eon-edis ",20,"E.DIS AG",,
BNA0062,"BHW Beeskow",,,"Sonae Arauco Beeskow GmbH",,15848,Beeskow,Brandenburg,DE,18.3,,"Biomass and biogas","Steam turbine",yes,,2001,2001,,,operating,,52.18269,14.25841,,,,,0.38,"Renewable energy",Bioenergy,"Biomass and biogas",yes,"Umspannwerk Beeskow der E.DIS AG",HS/MS,"E.DIS AG",,
BNA0066,"BMKW Bergkamen",,,"Innogy SE","Ernst-Schering-Straße 10",59192,Bergkamen,Nordrhein-Westfalen,DE,17.7,,"Biomass and biogas","Steam turbine",yes,,2005,2005,,,operating,,51.63701,7.61876,,,,,0.38,"Renewable energy",Bioenergy,"Biomass and biogas",yes,DE000323591920000304434000000S003,30,"GSW Gemeinschaftsstadtwerke GmbH Kamen, Bönen, Bergkamen",,
BNA0068,"HHKW Berlin-Neukölln",,,"RWE Vertrieb AG","Köpenicker Straße 32",12355,Berlin,Berlin,DE,16.5,,"Biomass and biogas","Steam turbine",yes,,2005,2005,,,operating,,52.42529,13.517308,,,,,0.38,"Renewable energy",Bioenergy,"Biomass and biogas",yes,DE0000801235500000000000080116330,110,"Stromnetz Berlin GmbH",,
BNA0090,"ENERTRAG Netz GmbH  (UW Bertikow)",,,"ENERTRAG Aktiengesellschaft",,17291,Bertikow,Brandenburg,DE,20,,"Biomass and biogas","Steam turbine",no,,2003,2003,,,operating,,53.252132,13.957019,,,,,0.38,"Renewable energy",Bioenergy,"Biomass and biogas",yes,"UW Bertikow",220,"50Hertz Transmission GmbH",,
BNA0103,"Biomassekraftwerk Bischofferode",,,"Stadtwerke Leipzig GmbH",,37345,Bischofferode,Thüringen,DE,18.1,,"Biomass and biogas","Steam turbine",no,,2006,2006,,,operating,,51.48993,10.41307,,,,,0.38,"Renewable energy",Bioenergy,"Biomass and biogas",yes,"Umspannwerk Bischofferode",20,"TEN Thüringer Energienetze GmbH",,
BNA0156a,"Egger Kraftwerk Brilon","Biomasse - KWK - Anlage",,"Egger Holzwerkstoffe Brilon GmbH & Co. KG","Im Kissen 19",59929,"Brilon ",Nordrhein-Westfalen,DE,18,,"Biomass and biogas","Steam turbine",yes,,1990,1990,,,operating,,51.40667,8.60115,,,,,0.38,"Renewable energy",Bioenergy,"Biomass and biogas",yes,,10,"Westnetz GmbH",,
BNA0232a,"Werkskraftwerk Sappi Ehingen",,,"Sappi Ehingen GmbH","Kessel 5 - Turbine 5",89584,Ehingen,Baden-Württemberg,DE,13.2,,"Biomass and biogas","Steam turbine",yes,,1990,1990,,,operating,,48.26698,9.72615,,,,,0.38,"Renewable energy",Bioenergy,"Biomass and biogas",yes,,20,"Netze BW GmbH",,
BNA0232b,"Werkskraftwerk Sappi Ehingen",,,"Sappi Ehingen GmbH","Kessel 4 - Turbine 3",89584,Ehingen,Baden-Württemberg,DE,8,,"Biomass and biogas","Steam turbine",yes,,1961,1961,,,operating,,48.26693,9.72626,,,,,0.38,"Renewable energy",Bioenergy,"Biomass and biogas",no,,6,"Netze BW GmbH",,
BNA0244,"Emden Biomasse",,,"Statkraft Markets GmbH",,26725,Emden,Niedersachsen,DE,22,,"Biomass and biogas","Steam turbine",yes,,2005,2005,,,operating,,53.34217,7.20624,,,,,0.38,"Renewable energy",Bioenergy,"Biomass and biogas",yes,,110,"Avacon AG",,
BNA0250a,Biomasse-HKW,,,"innogy SE","Neuerostraße 8",49824,Emlichheim,Niedersachsen,DE,20,,"Biomass and biogas","Steam turbine",yes,,2006,2006,,,operating,,52.619274,6.86931,,,,,0.38,"Renewable energy",Bioenergy,"Biomass and biogas",yes,,MS,"Westnetz GmbH",,
BNA0277,"BMKW Flörsheim Wicker",,,"MVV Energie AG","Am Steinmühlenweg 5",65439,"Flörsheim Wicker",Hessen,DE,12.6,,"Biomass and biogas","Steam turbine",no,,2003,2003,,,operating,,50.022602,8.377209,,,,,0.38,"Renewable energy",Bioenergy,"Biomass and biogas",yes,,20,"Syna GmbH ",,
BNA0283,BKF,,,"Mainova AG","Alt Fechenheim 34",60382,"Frankfurt am Main",Hessen,DE,12.4,,"Biomass and biogas","Steam turbine",yes,,2004,2004,,,operating,,50.12943,8.76792,,,,,0.38,"Renewable energy",Bioenergy,"Biomass and biogas",yes,"UW Hanauer Landstraße",10,"NRM Netzdienste Rhein-Main GmbH",,
BNA0385,"KWK Gütersloh",,,"Pfleiderer Gütersloh GmbH","Stadtring Nordhorn 61",33332,Gütersloh,Nordrhein-Westfalen,DE,12.1,,"Biomass and biogas","Steam turbine",yes,,2001,2001,,,operating,,51.91537,8.40031,,,,,0.38,"Renewable energy",Bioenergy,"Biomass and biogas",yes,"Schaltanlage KWK",10,"Netzgesellschaft Gütersloh mbH ",,
BNA0388,Biomasse-Verstromungs-Anlage,BVA,,"Mark-E AG",,58099,Hagen,Nordrhein-Westfalen,DE,20,,"Biomass and biogas","Steam turbine",yes,,2004,2004,,,operating,,51.411114,7.491698,,,,,0.38,"Renewable energy",Bioenergy,"Biomass and biogas",yes,"U 101",110,"Enervie AssetNetWork GmbH ",,
BNA0399,"Müllverwertung Borsigstraße MVB",,,"MVB Müllverwertung Borsigstraße GmbH","Borsigstraße 3",22113,Hamburg,Hamburg,DE,20,,"Biomass and biogas","Steam turbine",yes,,2005,2005,,,operating,,53.53188044,10.07459164,,,,,0.38,"Renewable energy",Bioenergy,"Biomass and biogas",yes,"Billbrook  KS 80121 und Horn  KS 80128 ",110,"Stromnetz Hamburg GmbH",,
BNA0408,"Enertec Hameln","Block 7",,"Enertec Hameln GmbH",,31789,Hameln,Niedersachsen,DE,16.8,,"Biomass and biogas","Steam turbine",no,,2002,2002,,,operating,,52.09875,9.38821,,,,,0.38,"Renewable energy",Bioenergy,"Biomass and biogas",yes,"UW Afferde",30,"Westfalen Weser Netz GmbH",,
BNA1398,"Energieanlage 3",,,"SWISS KRONO GmbH","Wittstocker Chaussee 1",16909,Heiligengrabe,Brandenburg,DE,18.6,,"Biomass and biogas","Steam turbine",yes,,2002,2002,,,operating,,53.148966,12.379742,,,,,0.38,"Renewable energy",Bioenergy,"Biomass and biogas",yes,"UW Heiligengrabe",10,"E.DIS AG",,
BNA1501,"Bio HKW Herbrechtingen",,,"Biomasse-Heizkraftwerk-Herbrechtingen GmbH","Oskar-von-Miller-Weg 1",89542,Herbrechtingen,Baden-Württemberg,DE,14,,"Biomass and biogas","Steam turbine",yes,,2004,2004,,,operating,,48.628498,10.200853,,,,,0.38,"Renewable energy",Bioenergy,"Biomass and biogas",yes,"Umspannwerk Giengen",110,"Netze BW GmbH",,
BNA0520,"Stora Enso Maxau",,,"Stora Enso Maxau GmbH",,76187,Karlsruhe,Baden-Württemberg,DE,78,,"Biomass and biogas","Steam turbine",yes,,2010,2010,,,operating,,49.0393,8.31134,,,,,0.38,"Renewable energy",Bioenergy,"Biomass and biogas",no,DE00032776187ES000125501100010000,110,"Stadtwerke Karlsruhe Netzservice GmbH",,
BNA0549,"BMKW Königs Wusterhausen",,,"MVV Energie AG","Am Nordhafen 12",15711,"Königs Wusterhausen",Brandenburg,DE,17.1,,"Biomass and biogas","Steam turbine",no,,2003,2003,,,operating,,52.30479,13.63603,,,,,0.38,"Renewable energy",Bioenergy,"Biomass and biogas",yes,,20,"E.DIS AG",,
BNA0553,BMHKW-BinderHolz,,,"BinderHolz Deutschland GmbH","Einsteinstraße 9",85092,Kösching,Bayern,DE,15.1,,"Biomass and biogas","Steam turbine",yes,,2007,2007,,,operating,,48.79123,11.50679,,,,,0.38,"Renewable energy",Bioenergy,"Biomass and biogas",yes,"UW GROM",110,"Bayernwerk AG",,
BNA1522,"BioEnergie Park Klarsee",,,"Geno Bioenergie Leasingfonds Erste GmbH & Co. KG","Ernst-Röwer-Ring 2",17329,Krackow,Mecklenburg-Vorpommern,DE,17.8,,"Biomass and biogas","Steam turbine",yes,,2006,2006,,,operating,,53.320352,14.271028,,,,,0.38,"Renewable energy",Bioenergy,"Biomass and biogas",yes,"UW Bertikow",220,"50Hertz Transmission GmbH",,
BNA0573,"Landesbergen Biomasse",,,"Statkraft Markets GmbH",,31628,Landesbergen,Niedersachsen,DE,22,,"Biomass and biogas","Steam turbine",no,,2005,2005,,,operating,,52.57703,9.11009,,,,,0.38,"Renewable energy",Bioenergy,"Biomass and biogas",yes,,110,"Avacon AG",,
BNA0617,"BMK Lünen ",,,"STEAG New Energies GmbH","Josef Rethmann Straße 4",44536,Lünen,Nordrhein-Westfalen,DE,20,,"Biomass and biogas","Steam turbine",no,,2006,2006,,,operating,,51.61403992,7.481253974,,,,,0.38,"Renewable energy",Bioenergy,"Biomass and biogas",yes,,10,"Stadtwerke Lünen GmbH",,
BNA0628,"Biomasse-Heizkraftwerk Malchin",,,"envia THERM GmbH",,17139,Malchin,Mecklenburg-Vorpommern,DE,9.8,,"Biomass and biogas","Steam turbine",yes,,2003,2003,,,operating,,53.74186,12.78302,,,,,0.38,"Renewable energy",Bioenergy,"Biomass and biogas",yes,"UW Malchin",20,"E.DIS AG",,
BNA0636,"BMKW Mannheim",,,"MVV Energie AG","Otto-Hahn-Str. 1",68169,Mannheim,Baden-Württemberg,DE,17.9,,"Biomass and biogas","Steam turbine",no,,2003,2003,,,operating,,49.51644467,8.460246482,,,,,0.38,"Renewable energy",Bioenergy,"Biomass and biogas",yes,H80,20,"Netrion GmbH",,
BNA0637,"SCA Mannheim","SCA Mannheim",,"SCA HYGIENE PRODUCTS GmbH","Sandhofer Straße 176",68305,Mannheim,Baden-Württemberg,DE,40,,"Biomass and biogas","Steam turbine",yes,,2000,"1966 / 2000",,,operating,,49.5349,8.46358,,,,,0.38,"Renewable energy",Bioenergy,"Biomass and biogas",yes,,110,"Netrion GmbH",,
BNA0692,"KWK Neumarkt",,,"Pfleiderer Neumarkt GmbH","Dreichlinger Str. 76",92318,"Neumarkt i.d. Oberpfalz",Bayern,DE,15.6,,"Biomass and biogas","Steam turbine",yes,,1997,1997,,,operating,,49.26133,11.4516,,,,,0.38,"Renewable energy",Bioenergy,"Biomass and biogas",yes,"Übergabe KWK",10,"Stadtwerke Neumarkt i.d.OPf.",,
BNA0775,Biomasse-HKW,,,"B+S Papenburg Energie GmbH","Am Nordhafen 5",26871,Papenburg,Niedersachsen,DE,20,,"Biomass and biogas","Steam turbine",no,,2003,2003,,,operating,,53.09716,7.3954,,,,,0.38,"Renewable energy",Bioenergy,"Biomass and biogas",yes,"Vüllner Dorfstraße",20,"EWE NETZ GmbH",,
BNA0797,"Heizkraftwerk Pforzheim GmbH",Biomasse,,"Heizkraftwerk Pforzheim GmbH","Hohwiesenweg 15",75175,Pforzheim,Baden-Württemberg,DE,12.3,,"Biomass and biogas","Steam turbine",yes,,2004,2004,,,operating,,48.89705,8.725,,,,,0.38,"Renewable energy",Bioenergy,"Biomass and biogas",yes,Hohwiesenweg,110,"Stadtwerke Pforzheim GmbH und Co. KG",,
BNA0826,"BMHKW-RE Recklinghausen","BMHKW-RE Recklinghausen",,"Ökotech Ingenieurgesellschaft mbh","Maria-May-Straße 1",45665,Recklinghausen,Nordrhein-Westfalen,DE,15,,"Biomass and biogas","Steam turbine",yes,,2004,2004,,,operating,,51.604008,7.250848,,,,,0.38,"Renewable energy",Bioenergy,"Biomass and biogas",yes,UA-Katharinenstraße,110,"Westnetz GmbH",,
BNA1256,"UPM Schwedt",Dampfturbine,,"LEIPA Georg Leinfelder GmbH","Kuhheide 1",16306,Schwedt,Brandenburg,DE,13.3,,"Biomass and biogas","Steam turbine",yes,,1993,1993,,,operating,,53.08672,14.31935,,,,,0.38,"Renewable energy",Bioenergy,"Biomass and biogas",no,"UW Haindl",110,"E.DIS AG",,
BNA0926a,"Heizkraftwerk der Sappi Stockstadt GmbH",Biomasseheizkraftwerk,,"Sappi Stockstadt GmbH","Obernburger Straße 1-9",63811,Stockstadt,Bayern,DE,14,,"Biomass and biogas","Steam turbine",yes,,2003,2003,,,operating,,49.97745,9.06872,,,,,0.38,"Renewable energy",Bioenergy,"Biomass and biogas",yes,"Primär Kundenanlage zur betrieblichen Eigenversorgung ; Verbindung mit Netz der allgemeinen Versorgung über Trafo 11 (110/20kV)",110,"Westnetz GmbH",,
BNA1405b,"BioHKW I",,,"Fernwärme Ulm GmbH","Magirusstr. 21",89077,Ulm,Baden-Württemberg,DE,8.7,,"Biomass and biogas","Steam turbine",yes,,2003,2003,,,operating,,48.39704,9.96484,,,,,0.38,"Renewable energy",Bioenergy,"Biomass and biogas",yes,"SWU 4",10,"Stadtwerke Ulm/Neu-Ulm Netze GmbH ",,
BNA1405c,"BioHKW II",,,"Fernwärme Ulm GmbH","Magirusstr. 21",89077,Ulm,Baden-Württemberg,DE,4.5,,"Biomass and biogas","Steam turbine",yes,,2012,2012,,,operating,,48.39704,9.96484,,,,,0.38,"Renewable energy",Bioenergy,"Biomass and biogas",yes,"SWU 5",10,"Stadtwerke Ulm/Neu-Ulm Netze GmbH ",,
BNA1335c,"PKV Kraftwerk",Biogasmotoren,,"Papier- u. Kartonfabrik Varel GmbH & Co. KG","Dangaster Straße 38",26316,Varel,Niedersachsen,DE,1.9,,"Biomass and biogas","Combustion Engine",yes,,2006,2006,,,operating,,53.40317,8.12821,,,,,0.4504,"Renewable energy",Bioenergy,"Biomass and biogas",yes,,20,"EWE NETZ GmbH",,
BNA1055,Wi-Biebrich,"Block 2",,"InfraServ GmbH & Co. Wiesbaden KG",,65203,Wiesbaden,Hessen,DE,6.7,,"Biomass and biogas","Steam turbine",yes,,2006,"2003 / 2006",,,operating,,50.040546,8.253248,,,,,0.38,"Renewable energy",Bioenergy,"Biomass and biogas",yes,"Station 25,G347",10,"InfraServ GmbH & Co. Wiesbaden KG",,
BNA0621,"Biomasseheizkraftwerk Piesteritz",,,"Stadtwerke Leipzig GmbH",,06886,"Wittenberg/ Piesteritz",Sachsen-Anhalt,DE,18.1,,"Biomass and biogas","Steam turbine",yes,,2009,2009,,,operating,,51.870883,12.569466,,,,,0.38,"Renewable energy",Bioenergy,"Biomass and biogas",yes,"Dessauer Str. 124R, 06886 Lutherstadt Wittenberg",110,"Mitteldeutsche Netzgesellschaft Strom mbH",,
BNA1091,Zolling,BMHKW,,"ENGIE Deutschland AG","Leininger Str. 1",85406,Zolling,Bayern,DE,10,,"Biomass and biogas","Steam turbine",yes,,2003,2003,,,operating,,48.45534,11.8019,,,,,0.38,"Renewable energy",Bioenergy,"Biomass and biogas",yes,"110-kV-Schaltfeld E05 / LS 173",110,"Bayernwerk AG",,
BNA0019,"Heizkraftwerk Altbach/Deizisau","ALT HKW 2 (DT Solobetrieb)","Altbach/Deizisau HKW 1","EnBW Energie Baden-Württemberg AG","Industriestraße 11",73776,Altbach,Baden-Württemberg,DE,336,476,"Hard coal","Steam turbine",yes,280,1997,1997,2006,,operating,CHP,48.717611,9.374917,11WD4AL1KU1-S--E,11WD4AL1U1C2---O,0.44,http://www.feuerwehr-oberboihingen.de/index.php?id=210&tx_ttnews[tt_news]=452&cHash=d8aa7375c5ed6e4b398f9bee5e270dbb,0.44,"Fossil fuels","Hard coal",,no,Altbach,380,"Transnet BW GmbH","List matching type: Single UBA power plant assigned to single BNetzA power plant",
BNA0020,"Heizkraftwerk Altbach/Deizisau","ALT HKW 1","Altbach/Deizisau HKW 2","EnBW Energie Baden-Württemberg AG","Industriestraße 11",73776,Altbach,Baden-Württemberg,DE,433,379,"Hard coal","Steam turbine",yes,280,1985,1985,2012,,reserve,CHP,48.717611,9.374917,11WD4AL1KU1-S--E,11WD4AL1U1C1---T,0.44,http://www.feuerwehr-oberboihingen.de/index.php?id=210&tx_ttnews[tt_news]=452&cHash=d8aa7375c5ed6e4b398f9bee5e270dbb,0.455,"Fossil fuels","Hard coal",,no,Altbach,380,"Transnet BW GmbH","List matching type: Single UBA power plant assigned to single BNetzA power plant",
BNA1331,"Reno De Medici","HD - Kraftwerk",,"Reno De Medici Arnsberg GmbH","Hellefelderstr. 51",59821,Arnsberg,Nordrhein-Westfalen,DE,19,,"Hard coal","Steam turbine",yes,,1923,1923,,,operating,,51.39139,8.07304,,,,,0.2325,"Fossil fuels","Hard coal",,no,DE00018144139V592849,30,"Westnetz GmbH",,
BNA0067,Bergkamen,A,"Bergkamen A","RWE Generation SE",,59192,Bergkamen,Nordrhein-Westfalen,DE,717,780,"Hard coal","Steam turbine",yes,20,1981,1981,,,operating,,51.63702,7.6191,11WD7BERG1S--KWB,11WD7BERG1S--A-X,,,0.3775,"Fossil fuels","Hard coal",,no,Gersteinwerk,380,"Amprion GmbH","List matching type: Single UBA power plant assigned to single BNetzA power plant",
BNA0082,Reuter,"Reuter C","Berlin-Reuter C","Vattenfall Europe Wärme AG","Otternbuchtstr. 11",13599,Berlin,Berlin,DE,124,132,"Hard coal","Steam turbine",yes,244,1969,1969,,,operating,CHP,52.532146,13.246072,11WD8REUT5X----M,11WD8REUT5X---CX,,,0.3475,"Fossil fuels","Hard coal",,no,Reuter,110,"Stromnetz Berlin GmbH","List matching type: Single UBA power plant assigned to single BNetzA power plant",
BNA0085a,Moabit,"Moabit A","Berlin-Moabit A","Vattenfall Europe Wärme AG","Friedrich-Krause-Ufer 10- 15",13353,Berlin,Berlin,DE,89,100,"Hard coal","Steam turbine",yes,136,1990,1990,1990,,operating,CHP,52.53735111,13.34611416,,,,,0.4,"Fossil fuels","Hard coal",,no,Moabit,110,"Stromnetz Berlin GmbH","List matching type: Single UBA power plant assigned to single BNetzA power plant",
BNA0086,"Reuter West","Reuter West D","Berlin-Reuter-West D","Vattenfall Europe Wärme AG","Großer Spreering 5",13599,Berlin,Berlin,DE,282,300,"Hard coal","Steam turbine",yes,363,1987,1987,,,operating,CHP,52.53508792,13.24264526,11WD8REUW1C----4,11WD8REUW1C---DD,0.4,http://www.energie-und-management.de/free-archive/Freearchive/feView3/4449.html,0.3925,"Fossil fuels","Hard coal",,no,Reuter,380,"50Hertz Transmission GmbH","List matching type: Single UBA power plant assigned to single BNetzA power plant",
BNA0087,"Reuter West","Reuter West E","Berlin-Reuter-West E","Vattenfall Europe Wärme AG","Großer Spreering 5",13599,Berlin,Berlin,DE,282,300,"Hard coal","Steam turbine",yes,363,1988,1988,,,operating,CHP,52.53508792,13.24264526,11WD8REUW1C----4,11WD8REUW1C---EB,0.4,http://www.energie-und-management.de/free-archive/Freearchive/feView3/4449.html,0.395,"Fossil fuels","Hard coal",,no,Reuter,380,"50Hertz Transmission GmbH","List matching type: Single UBA power plant assigned to single BNetzA power plant",
BNA0093,"Kraftwerk Bexbach",BEX,Bexbach,"STEAG GmbH",Grubenstraße,66450,Bexbach,Saarland,DE,726,780,"Hard coal","Steam turbine",no,,1983,1983,,,reserve,,49.363481,7.237136,11WD7MITB1S--KWK,11WD7MITB1C---A1,0.39,http://www.spd-saar.de/uploads/media/konzept_bergbau.pdf,0.3825,"Fossil fuels","Hard coal",,no,Mittelbexbach,380,"Amprion GmbH","List matching type: Single UBA power plant assigned to single BNetzA power plant",
BNA0138,HKW-Mitte,"Block 1 ",Braunschweig-Mitte,"Braunschweiger Versorgungs-AG & Co. KG",,38106,Braunschweig,Niedersachsen,DE,43.3,57.77538,"Hard coal","Combined cycle",yes,121.637363437728,1984,1984,,,operating,CHP,52.278611,10.514722,,,,,0.468,"Fossil fuels","Hard coal",,no,"UW Hasenwinkel",110,"Braunschweiger Netz GmbH","List matching type: UBA capacity distributed proportionally to multiple BNetzA power plants",
BNA0144,"KW Hastedt","Block 15","Bremen-Hastedt 15","swb Erzeugung GmbH & Co. KG","Hastedter Osterdeich 255",28207,Bremen,Bremen,DE,119,130,"Hard coal","Steam turbine",yes,155,2014,2014,,,operating,CHP,53.06008,8.87328,11WD2BHAS000271O,11WD2BR15000116G,,,0.46,"Fossil fuels","Hard coal",,no,DE0072032820700000000000000232557,110,"Wesernetz Bremen GmbH","List matching type: Single UBA power plant assigned to single BNetzA power plant",
BNA0146,"KW Hafen","Block 6","Bremen-Hafen 6, (Elfi)","swb Erzeugung GmbH & Co. KG","Otavistr. 7-9",28237,Bremen,Bremen,DE,303,315,"Hard coal","Steam turbine",yes,39,1979,1979,,,operating,,53.124861,8.728657,11WD2BHAF000272F,11WD2BRE6000118Z,,,0.3725,"Fossil fuels","Hard coal",,no,DE0072032823700000000000000232558,110,"Wesernetz Bremen GmbH","List matching type: Single UBA power plant assigned to single BNetzA power plant",
BNA0147,Farge,Farge,Bremen-Farge,"ENGIE Deutschland AG","Wilhelmshavener Str. 6",28777,Bremen,Bremen,DE,350,397,"Hard coal","Steam turbine",no,26,1969,1969,2007,,operating,,53.20206653,8.516153926,11WD2FARK000287K,11WD2FARG0001262,,,0.4425,"Fossil fuels","Hard coal",,no,"Farge - FA1",220,"TenneT TSO GmbH ","List matching type: Single UBA power plant assigned to single BNetzA power plant",
BNA0211,"HKW I",ZAWSF,"Duisburg-Hochfeld HKW I","Stadtwerke Duisburg AG",Zirkelstraße,47053,Duisburg,Nordrhein-Westfalen,DE,95,106,"Hard coal","Steam turbine",yes,139,1985,1985,,,operating,CHP,51.429324,6.751984,,,,,0.3875,"Fossil fuels","Hard coal",,no,"UW HKW I",110,"Netze Duisburg GmbH","List matching type: Single UBA power plant assigned to single BNetzA power plant",
BNA0216a,"KW Walsum","Walsum 9","Duisburg-Walsum 9","Steag GmbH","Dr. Wilhelm-Roelen-Str.129",47180,Duisburg,Nordrhein-Westfalen,DE,370,410,"Hard coal","Steam turbine",yes,295,1988,1988,,,operating,CHP,51.52672,6.71868,11WD7WALS1S--KW0,11WD7WALS5S--9-Y,,,0.395,"Fossil fuels","Hard coal",,no,"220 kV Schaltanlage Walsum",220,"Amprion GmbH","List matching type: Single UBA power plant assigned to single BNetzA power plant",
BNA0216b,"KW Walsum","Walsum 10","Duisburg-Walsum 10","STEAG-EVN Walsum 10 Kraftwerksgesellsellschaft mbH","Dr. Wilhelm-Roelen-Str.129",47180,Duisburg,Nordrhein-Westfalen,DE,725,790,"Hard coal","Steam turbine",yes,n.b.,2013,2013,,,operating,CHP,51.52672,6.71868,11WD7WALS1S--KW0,11WD7WALS1S--10A,0.45,http://www.energystate.de/detail.php?lang=de&kat=project&id=183,0.4575,"Fossil fuels","Hard coal",,no,SA-Walsum,380,"Amprion GmbH","List matching type: Single UBA power plant assigned to single BNetzA power plant",
BNA0252,"Kraftwerk Ensdorf","Block 3","Ensdorf 3","Gemeinschaft nach Bruchteilen der Saarstahl AG (SAG) und Saarschmiede GmbH Freiformschmiede (SSF)","Kurt Kessler Str. 1",66806,Ensdorf,Saarland,DE,283,310,"Hard coal","Steam turbine",no,60,2011,2011,2002,,operating,,49.293248,6.770937,11WD7ENSD5SKW3-E,11WD7ENSD5S--3-T,,,0.4525,"Fossil fuels","Hard coal",,no,"Ensdorf (Schaltanlage Ensdorf (UA Ensdorf 110 kV), Kurt -Kessler-Straße, 66808 Ensdorf",110,"VSE Verteilnetz GmbH","List matching type: Single UBA power plant assigned to single BNetzA power plant",
BNA0253,"Kraftwerk Ensdorf","Block 1","Ensdorf 1","VSE AG, Kraftwerk Ensdorf",Kurt-Kessler-Str.,66806,Ensdorf,Saarland,DE,106,120,"Hard coal","Steam turbine",yes,66,1963,1963,2002,,operating,,49.293248,6.770937,11WD7ENSD2SKW1-4,11WD7ENSD2S--1-J,0.36,http://www.spd-saar.de/uploads/media/konzept_bergbau.pdf,0.43,"Fossil fuels","Hard coal",,no,"Schaltanlage Ensdorf (UA-Ensdorf); DE 0001816680600000000000000580138",220,"Amprion GmbH","List matching type: Single UBA power plant assigned to single BNetzA power plant",
BNA0261b,"HKW Erlangen","K6 DT2",,"Erlanger Stadtwerke AG"," Äußere Bruckerstr. 33",91052,Erlangen,Bayern,DE,17.4,,"Hard coal","Steam turbine",yes,,1980,1980,,,operating,,49.59283,11.00148,,,,,0.375,"Fossil fuels","Hard coal",,no,"UW Mitte",20,"Erlanger Stadtwerke AG",,
BNA0270,"Heizkraftwerk FL","Block 11","Flensburg K09 bis K12","Stadtwerke Flensburg GmbH","Batteriestr. 48",24939,Flensburg,Schleswig-Holstein,DE,27,24.63402,"Hard coal","Combined cycle",yes,40.5,1992,1992,,,operating,CHP,54.80495,9.43244,,,,,0.504,"Fossil fuels","Hard coal",,no,"SW Flensburg GmbH",60,"Stadtwerke Flensburg GmbH ","List matching type: UBA capacity distributed proportionally to multiple BNetzA power plants",
BNA0271,"Heizkraftwerk FL","Block 10","Flensburg K09 bis K12","Stadtwerke Flensburg GmbH","Batteriestr. 48",24939,Flensburg,Schleswig-Holstein,DE,29,26.45876,"Hard coal","Combined cycle",yes,43.5,1988,1988,,,operating,CHP,54.80495,9.43244,,,,,0.486,"Fossil fuels","Hard coal",,no,"SW Flensburg GmbH",60,"Stadtwerke Flensburg GmbH ","List matching type: UBA capacity distributed proportionally to multiple BNetzA power plants",
BNA0272,"Heizkraftwerk FL","Block 9","Flensburg K09 bis K12","Stadtwerke Flensburg GmbH","Batteriestr. 48",24939,Flensburg,Schleswig-Holstein,DE,33,30.10825,"Hard coal","Combined cycle",yes,49.5,1985,1985,,,operating,CHP,54.80495,9.43244,,,,,0.4725,"Fossil fuels","Hard coal",,no,"SW Flensburg GmbH",60,"Stadtwerke Flensburg GmbH ","List matching type: UBA capacity distributed proportionally to multiple BNetzA power plants",
BNA0289b,"HKW West","Block 2","Frankfurt-West 2 u. 3","Mainova AG","Gutleutstraße 231",60627,"Frankfurt am Main",Hessen,DE,61.5,62.06027,"Hard coal","Steam turbine",yes,105.0,1989,1989,,,operating,CHP,50.09843,8.65313,,,,,0.3975,"Fossil fuels","Hard coal",,no,"UW Gutleutstraße",110,"NRM Netzdienste Rhein-Main GmbH","List matching type: UBA capacity distributed proportionally to multiple BNetzA power plants",
BNA0290,"HKW West","Block 3","Frankfurt-West 2 u. 3","Mainova AG","Gutleutstraße 231",60627,"Frankfurt am Main",Hessen,DE,61.5,62.06027,"Hard coal","Steam turbine",yes,105.0,1989,1989,,,operating,CHP,50.09843,8.65313,,,,,0.3975,"Fossil fuels","Hard coal",,no,"UW Gutleutstraße",110,"NRM Netzdienste Rhein-Main GmbH","List matching type: UBA capacity distributed proportionally to multiple BNetzA power plants",
BNA0331,Scholven,C,"Gelsenkirchen-Scholven C","Uniper Kraftwerke GmbH ",,45896,Gelsenkirchen,Nordrhein-Westfalen,DE,345,370,"Hard coal","Steam turbine",yes,,1969,1969,,,operating,,51.60236802,7.009894096,11WD7SCHO-S--KWW,11WD7SCHO2S--C-R,,,0.3475,"Fossil fuels","Hard coal",,no,Scholven,220,"Amprion GmbH","List matching type: Single UBA power plant assigned to single BNetzA power plant",
BNA0332,Scholven,B,"Gelsenkirchen-Scholven B","Uniper Kraftwerke GmbH ",,45896,Gelsenkirchen,Nordrhein-Westfalen,DE,345,370,"Hard coal","Steam turbine",yes,,1968,1968,,,operating,,51.60236802,7.009894096,11WD7SCHO-S--KWW,11WD7SCHO1S--B-0,,,0.345,"Fossil fuels","Hard coal",,no,Scholven,220,"Amprion GmbH","List matching type: Single UBA power plant assigned to single BNetzA power plant",
BNA0336,"FWK Buer",,,"Uniper Kraftwerke GmbH ",,45896,Gelsenkirchen,Nordrhein-Westfalen,DE,70,,"Hard coal","Steam turbine",yes,,1985,1985,,,operating,,51.59696,7.00452,,,,,0.3875,"Fossil fuels","Hard coal",,no,Scholven,35,"Amprion GmbH",,
BNA0377,Staudinger,00005,"Staudinger 5 (Großkrotzenburg)","Uniper Kraftwerke GmbH ",,63538,Großkrotzenburg,Hessen,DE,510,553,"Hard coal","Steam turbine",yes,300,1992,1992,,,operating,CHP,50.088553,8.953399,11WD2STAU0001800,11WD2STA5000066D,,,0.405,"Fossil fuels","Hard coal",,no,Großkrotzenburg,380,"TenneT TSO GmbH ","List matching type: Single UBA power plant assigned to single BNetzA power plant",
BNA1673,"Moorburg A",A,"Hamburg-Moorburg A","Vattenfall Heizkraftwerk Moorburg GmbH","Moorburger Schanze 2",21079,Hamburg,Hamburg,DE,800,827,"Hard coal","Steam turbine",yes,120,2015,2015,,,operating,CHP,53.486245,9.953149,11WD8MOOR1C----G,11WD8MOOR1C---AV,,,0.4625,"Fossil fuels","Hard coal",,no,,380,"50Hertz Transmission GmbH","List matching type: Single UBA power plant assigned to single BNetzA power plant",
BNA0402,Tiefstack,Tiefstack,"Hamburg-Tiefstack HKW","Vattenfall Hamburg Wärme GmbH","Andreas-Meyer-Straße 8",22113,Hamburg,Hamburg,DE,194,205,"Hard coal","Steam turbine",yes,785,1993,1993,,,operating,CHP,53.52616631,10.06317616,11WD8TIEF5X----V,11WD8TIEF5C----9,,,0.4075,"Fossil fuels","Hard coal",,no,Tiefstack,110,"Stromnetz Hamburg GmbH","List matching type: Single UBA power plant assigned to single BNetzA power plant",
BNA1558,"Moorburg B",B,"Hamburg-Moorburg B","Vattenfall Heizkraftwerk Moorburg GmbH","Moorburger Schanze 2",21079,Hamburg,Hamburg,DE,800,827,"Hard coal","Steam turbine",yes,120,2015,2015,,,operating,CHP,53.486245,9.953149,11WD8MOOR1C----G,11WD8MOOR1C---BT,0.465,http://corporate.vattenfall.de/uber-uns/geschaftsfelder/erzeugung/bauprojekte/Moorburg/Baustein_fuer_den_Klimaschutz/,0.4625,"Fossil fuels","Hard coal",,no,,380,"50Hertz Transmission GmbH","List matching type: Single UBA power plant assigned to single BNetzA power plant",
BNA0413c,Westfalen,E,"Westfalen E (Hamm-Uentrop)","RWE Generation SE",,59071,Hamm-Uentrop,Nordrhein-Westfalen,DE,763.7,820,"Hard coal","Steam turbine",no,,2014,2014,,,operating,,51.680278,7.969722,11WD7WEST1S-KW-K,11WD7WSFN1S--E-Z,0.46,http://www.rwe.com/web/cms/de/1770974/rwe-generation-se/standorte/deutschland/kw-westfalen/,0.46,"Fossil fuels","Hard coal",,no,"Uentrop (380kV), Lippborg (110kV) und Unna (110kV)","380, 110","Amprion GmbH, Westnetz GmbH","List matching type: Single UBA power plant assigned to single BNetzA power plant",
BNA0420,GKH,Block1,Hannover-Stöcken,"Stadtwerke Hannover AG",,30419,Hannover,Niedersachsen,DE,136,150,"Hard coal","Steam turbine",yes,212.5,1989,1989,,,operating,CHP,52.42,9.648611,11WD2HANN5C----0,11WD2HANN5C---1X,,,0.3975,"Fossil fuels","Hard coal",,no,UW-Stöcken,110,"enercity Netzgesellschaft mbH ","List matching type: UBA capacity distributed proportionally to multiple BNetzA power plants",
BNA0421,GKH,Block2,Hannover-Stöcken,"Stadtwerke Hannover AG",,30419,Hannover,Niedersachsen,DE,136,150,"Hard coal","Steam turbine",yes,212.5,1989,1989,,,operating,CHP,52.42,9.648611,11WD2HANN5C----0,11WD2HANN5C---2V,,,0.3975,"Fossil fuels","Hard coal",,no,UW-Stöcken,110,"enercity Netzgesellschaft mbH ","List matching type: UBA capacity distributed proportionally to multiple BNetzA power plants",
BNA0432,"Heizkraftwerk Heilbronn","HLB 5","Heilbronn 5","EnBW Energie Baden-Württemberg AG","Lichtenbergerstraße 23",74076,Heilbronn,Baden-Württemberg,DE,125,125,"Hard coal","Steam turbine",no,28,1965,1965,2010,,reserve,,49.177334,9.206318,,,,,0.45,"Fossil fuels","Hard coal",,no,Heilbronn,110,"Netze BW GmbH","List matching type: Single UBA power plant assigned to single BNetzA power plant",
BNA0433,"Heizkraftwerk Heilbronn","HLB 6","Heilbronn 6","EnBW Energie Baden-Württemberg AG","Lichtenbergerstraße 23",74076,Heilbronn,Baden-Württemberg,DE,125,125,"Hard coal","Steam turbine",no,28,1966,1966,2010,,reserve,,49.177334,9.206318,,,,,0.45,"Fossil fuels","Hard coal",,no,Heilbronn,110,"Netze BW GmbH","List matching type: Single UBA power plant assigned to single BNetzA power plant",
BNA0434,"Heizkraftwerk Heilbronn","HLB 7","Heilbronn 7","EnBW Energie Baden-Württemberg AG","Lichtenbergerstraße 23",74076,Heilbronn,Baden-Württemberg,DE,778,816,"Hard coal","Steam turbine",yes,550,1985,1985,2009,,operating,CHP,49.177334,9.206318,11WD4HLBR1CS---A,11WD4HLBR1C7---4,,,0.4475,"Fossil fuels","Hard coal",,no,Großgartach,380,"Transnet BW GmbH","List matching type: Single UBA power plant assigned to single BNetzA power plant",
BNA0450,"KW Herne","Herne 4","Herne 4","Steag GmbH","Hertener Str. 16",44655,Herne,Nordrhein-Westfalen,DE,449,500,"Hard coal","Steam turbine",yes,550,1989,1989,2013,,operating,CHP,51.550753,7.187481,11WD7HERN2S--KWU,11WD7HERN2S--4-X,0.4,http://www.gvst.de/dokumente/fachbeitraege/GVSt-Jahresveranstaltung%202010_4.pdf,0.4575,"Fossil fuels","Hard coal",,no,"220 kV Schaltanlage Bochum",220,"Amprion GmbH","List matching type: Single UBA power plant assigned to single BNetzA power plant",
BNA0464,KWM,Block3,"Mehrum 3 (C)","Stadtwerke Hannover AG",,31249,"Hohenhameln OT Mehrum",Niedersachsen,DE,690,750,"Hard coal","Steam turbine",no,,1979,1979,2003,,operating,,52.3150224,10.09141738,11WD2MEHR2CSWH-O,11WD2MEHR2CSWHCZ,,,0.4325,"Fossil fuels","Hard coal",,no,UW-Mehrum,220,"TenneT TSO GmbH ","List matching type: Single UBA power plant assigned to single BNetzA power plant",
BNA0493,Ibbenbüren,B,Ibbenbüren,"RWE Generation SE",,49479,Ibbenbüren,Nordrhein-Westfalen,DE,794,838,"Hard coal","Steam turbine",yes,20,1985,1985,2009,,operating,,52.28881179,7.747906179,11WD7IBBE2S--KW6,11WD7IBBE2S--B-P,,,0.4475,"Fossil fuels","Hard coal",,no,"Westerkappeln (380kV), Westerkappeln (110kV) und Ibbenbüren (110kV)","380, 110","Amprion GmbH, Westnetz GmbH","List matching type: Single UBA power plant assigned to single BNetzA power plant",
BNA0498,Heizkraftwerk,"Block B","Frankfurt-Hoechst A u. B","Infraserv GmbH & Co. Höchst KG",,65926,"Industriepark Höchst",Hessen,DE,66,70.42895,"Hard coal","Combined cycle",yes,211.894736842105,1989,1989,,,operating,CHP,50.09178,8.53105,,,,,0.4905,"Fossil fuels","Hard coal",,no,"FWH O/W",10,"Infraserv GmbH & Co. Höchst KG","List matching type: UBA capacity distributed proportionally to multiple BNetzA power plants",
BNA0510b,"HKW Karcherstr.",20,,"SWK - Stadtwerke Kaiserslautern",,67655,Kaiserslautern,Rheinland-Pfalz,DE,13.4,,"Hard coal","Steam turbine",yes,,1996,1996,,,operating,,49.43461,7.75824,,,,,0.415,"Fossil fuels","Hard coal",,no,"UW 1",20,"SWK Stadtwerke Kaiserslautern Versorgungs-AG",,
BNA0518a,Rheinhafen-Dampfkraftwerk,"RDK 7","Karlsruhe-RDK 7","EnBW Energie Baden-Württemberg AG","Fettweisstraße 42",76189,Karlsruhe,Baden-Württemberg,DE,517,550,"Hard coal","Steam turbine",yes,220,1985,1985,2005,,operating,CHP,49.0125,8.302778,11WD4DAXLA-S---T,11WD4RDK71C7---G,,,0.4375,"Fossil fuels","Hard coal",,no,Daxlanden,380,"Transnet BW GmbH","List matching type: Single UBA power plant assigned to single BNetzA power plant",
BNA0518b,Rheinhafen-Dampfkraftwerk,"RDK 8","Karlsruhe-RDK 8","EnBW Energie Baden-Württemberg AG","Fettweisstraße 42",76189,Karlsruhe,Baden-Württemberg,DE,834,912,"Hard coal","Steam turbine",yes,220,2014,2014,,,operating,,49.0125,8.302778,11WD4DAXLA-S---T,11WD4RDK81C8---3,0.46,https://www.enbw.com/unternehmen/konzern/energieerzeugung/fossile-energie/standorte.html,0.46,"Fossil fuels","Hard coal",,no,Daxlanden,380,"Transnet BW GmbH","List matching type: Single UBA power plant assigned to single BNetzA power plant",
BNA0526,"Gemeinschaftskraftwerk Kiel",,"Kiel-Ost (GKK)","Gemeinschaftskraftwerk Kiel GmbH",,24149,Kiel,Schleswig-Holstein,DE,323,354,"Hard coal","Steam turbine",yes,295,1970,1970,1992,,operating,CHP,54.33945,10.1766,11WD2KIKW000301W,11WD2KIEL000050P,0.39,http://www.bund.net/fileadmin/bundnet/publikationen/energie/20070628_energie_stilllegungsluege_kohlekraftwerke_klimafakten.pdf,0.405,"Fossil fuels","Hard coal",,no,"Umspannwerk Hasselfelde",220,"TenneT TSO GmbH ","List matching type: Single UBA power plant assigned to single BNetzA power plant",
BNA0557a,"Kraftwerk L 57",,,"Currenta GmbH & Co. OHG","CHEMPARK, Geb. L 57",47812,Krefeld-Uerdingen,Nordrhein-Westfalen,DE,26,,"Hard coal","Steam turbine",yes,,1957,1957,,,operating,,51.369811,6.6615,,,,,0.3175,"Fossil fuels","Hard coal",,no,,25,CURRENTA,,
BNA0557b,"Kraftwerk N 230",,"Krefeld-Uerdingen N 230","Currenta GmbH & Co. OHG","CHEMPARK, Geb. N 230",47812,Krefeld-Uerdingen,Nordrhein-Westfalen,DE,110,116,"Hard coal","Steam turbine",yes,460,1971,1971,,,operating,,51.369811,6.6615,,,,,0.3525,"Fossil fuels","Hard coal",,no,,25,CURRENTA,"List matching type: Single UBA power plant assigned to single BNetzA power plant",
BNA0600b,G-Kraftwerk,,"Leverkusen G15/G22/X50","Currenta GmbH & Co. OHG","CHEMPARK, Geb. G 22",51368,Leverkusen,Nordrhein-Westfalen,DE,103,108.54615,"Hard coal","Steam turbine",yes,563.330769230769,1962,1962,,,operating,IPP,51.368872,6.654106,,,,,0.33,"Fossil fuels","Hard coal",,no,,25,CURRENTA,"List matching type: UBA capacity distributed proportionally to multiple BNetzA power plants",
BNA0618,"KW Lünen","Lünen 6","Lünen 6","Steag GmbH","Moltkestr. 215",44536,Lünen,Nordrhein-Westfalen,DE,149,170,"Hard coal","Steam turbine",no,,1962,1962,1996,,operating,,51.61403992,7.481253974,11WD7LUNE2S--KW8,11WD7LUNE5S--6-L,0.36,http://www.trianel-luenen.de/pm/trianel-kohlekraftwerk-luenen-ausgezeichnet-1/,0.415,"Fossil fuels","Hard coal",,no,"110 kV Schaltanlage Lünen",110,"Westnetz GmbH","List matching type: Single UBA power plant assigned to single BNetzA power plant",
BNA0619,"KW Lünen","Lünen 7","Lünen 7","Steag GmbH","Moltkestr. 215",44537,Lünen,Nordrhein-Westfalen,DE,324,350,"Hard coal","Steam turbine",yes,,1969,1969,1997,,operating,,51.61403992,7.481253974,11WD7LUNE2S--KW8,11WD7LUNE2S--7-2,0.36,http://www.trianel-luenen.de/pm/trianel-kohlekraftwerk-luenen-ausgezeichnet-1/,0.4175,"Fossil fuels","Hard coal",,no,"220 kV Schaltanlage Elmenhorst",220,"Amprion GmbH/DB Energie GmbH","List matching type: Single UBA power plant assigned to single BNetzA power plant",
BNA1508,"Trianel Kohlekraftwerk Lünen",,"Lünen Stummhafen","Trianel Kohlekraftwerk Lünen GmbH & Co. KG","Frydagstr. 40",44536,Lünen,Nordrhein-Westfalen,DE,735,820,"Hard coal","Steam turbine",yes,35,2013,2013,,,operating,CHP,51.6124,7.46532,11WD7KWHU----KW9,11WD7STUM1SBL10G,0.4595,http://www.trianel.com/de/pressemeldungen/details/article//trianel-kohlekraftwerk-luenen-9.html,0.4575,"Fossil fuels","Hard coal",,no,"UA Lippe",400,"Amprion GmbH","List matching type: Single UBA power plant assigned to single BNetzA power plant",
BNA0644,"GKM ","Block 6","Mannheim 6","Grosskraftwerk Mannheim AG","Marguerrestraße 1",68199,Mannheim,Baden-Württemberg,DE,255,280,"Hard coal","Steam turbine",yes,,2005,2005,2005,,operating,,49.445694,8.490444,,,,,0.4375,"Fossil fuels","Hard coal",,no,"Transnet BW (220kV) Einspeisepunkt 220 kV Neckarau und 220 kV Altlußheim, Pfalzwerke Netzgesellschaft 220 kV Mutterstadt (Rhein N, Rhein S), 110 kV Mutterstadt Waldmühle N, Waldmühle S Netrion diverse 110 kV und 10 kV Anschlüsse",220/110/10,"Transnet BW, Pfalzwerke Netzgesellschaft, Netrion, DB Energie GmbH","List matching type: Single UBA power plant assigned to single BNetzA power plant",
BNA0645,"GKM ","Block 7","Mannheim 7","Grosskraftwerk Mannheim AG","Marguerrestraße 1",68199,Mannheim,Baden-Württemberg,DE,425,475,"Hard coal","Steam turbine",yes,500,1982,1982,,,operating,CHP,49.445694,8.490444,,,,,0.38,"Fossil fuels","Hard coal",,no,"Transnet BW (220kV) Einspeisepunkt 220 kV Neckarau und 220 kV Altlußheim, Pfalzwerke Netzgesellschaft 220 kV Mutterstadt (Rhein N, Rhein S), 110 kV Mutterstadt Waldmühle N, Waldmühle S Netrion diverse 110 kV und 10 kV Anschlüsse",220/110/10,"Transnet BW, Pfalzwerke Netzgesellschaft, Netrion, DB Energie GmbH","List matching type: Single UBA power plant assigned to single BNetzA power plant",
BNA0646a,"GKM ","Block 8","Mannheim 8","Grosskraftwerk Mannheim AG","Marguerrestraße 1",68199,Mannheim,Baden-Württemberg,DE,435,480,"Hard coal","Steam turbine",yes,500,1993,1993,,,operating,CHP,49.445694,8.490444,,,,,0.4075,"Fossil fuels","Hard coal",,no,"Transnet BW (220kV) Einspeisepunkt 220 kV Neckarau und 220 kV Altlußheim, Pfalzwerke Netzgesellschaft 220 kV Mutterstadt (Rhein N, Rhein S), 110 kV Mutterstadt Waldmühle N, Waldmühle S Netrion diverse 110 kV und 10 kV Anschlüsse",220/110/10,"Transnet BW, Pfalzwerke Netzgesellschaft, Netrion, DB Energie GmbH","List matching type: Single UBA power plant assigned to single BNetzA power plant",
BNA0646b,"GKM ","Block 9","Mannheim 9","Grosskraftwerk Mannheim AG","Marguerrestraße 1",68199,Mannheim,Baden-Württemberg,DE,843,911,"Hard coal","Steam turbine",yes,500,2015,2015,,,operating,CHP,49.445694,8.490444,,,0.464,http://www.gkm.de/media/?file=517_GKM_Block_9_Folder_DE.pdf&download,0.4625,"Fossil fuels","Hard coal",,no,"220 kV Schaltfelder GKM ",220,"Transnet BW GmbH","List matching type: Single UBA power plant assigned to single BNetzA power plant",
BNA0662b,"Kraftwerk I","Dampfwirtschaft (6 Einzelturbinen)","Marl I+II","Evonik Degussa GmbH","Paul-Baumann-Str. 1",45772,Marl,Nordrhein-Westfalen,DE,120,99.82166,"Hard coal","Combined cycle",yes,285.859872611465,1939,"1939 und später",,,operating,IPP,51.68037,7.09688,,,,,0.2655,"Fossil fuels","Hard coal",,no,,6,"Evonik Degussa GmbH","List matching type: UBA capacity distributed proportionally to multiple BNetzA power plants",
BNA0660,"Kraftwerk I  ","Block 4 ","Marl I+II","Evonik Degussa GmbH","Paul-Baumann-Str. 1",45772,Marl,Nordrhein-Westfalen,DE,55.3,46.00115,"Hard coal","Combined cycle",yes,131.733757961783,1971,1971,,,operating,IPP,51.68037,7.09688,,,,,0.4095,"Fossil fuels","Hard coal",,no,,110,"Evonik Degussa GmbH","List matching type: UBA capacity distributed proportionally to multiple BNetzA power plants",
BNA0662a,"Kraftwerk I ","Block 5 ","Marl I+II","Evonik Degussa GmbH","Paul-Baumann-Str. 1",45772,Marl,Nordrhein-Westfalen,DE,60.2,50.0772,"Hard coal","Combined cycle",yes,143.406369426752,1983,1983,,,operating,IPP,51.68037,7.09688,,,,,0.4635,"Fossil fuels","Hard coal",,no,,110,"Evonik Degussa GmbH","List matching type: UBA capacity distributed proportionally to multiple BNetzA power plants",
BNA0758,"Heizkraftwerk Offenbach",,,"Energieversorgung Offenbach AG",,63067,Offenbach,Hessen,DE,54,,"Hard coal","Steam turbine",yes,,1990,1990,,,operating,,50.065155,8.768964,,,,,0.4,"Fossil fuels","Hard coal",,no,Andréstraße,110,"Netrion GmbH",,
BNA0793,Heyden,4,Heyden,"Uniper Kraftwerke GmbH ",,32469,Petershagen,Nordrhein-Westfalen,DE,875,923,"Hard coal","Steam turbine",no,,1987,1987,,,operating,,52.38279238,8.996004114,11WD2HEKW000297X,11WD2HEY40000638,0.42,http://www.eon.com/content/eon-com/de/about-us/structure/asset-finder/heyden.html,0.3925,"Fossil fuels","Hard coal",,no,Ovenstädt,380,"TenneT TSO GmbH ","List matching type: Single UBA power plant assigned to single BNetzA power plant",
BNA0801,"Heizkraftwerk Pforzheim GmbH",Wirbelschichtblock,,"Heizkraftwerk Pforzheim GmbH","Hohwiesenweg 15",75175,Pforzheim,Baden-Württemberg,DE,26.9,,"Hard coal","Steam turbine",yes,,1990,1990,,,operating,,48.88316,8.6653,,,,,0.4,"Fossil fuels","Hard coal",,no,Hohwiesenweg,110,"Stadtwerke Pforzheim GmbH und Co. KG",,
BNA0820,Weiher,"Weiher III",Quierschied-Weiher,"Steag GmbH","Holzer Straße",66287,Quierschied,Saarland,DE,655.6,724,"Hard coal","Steam turbine",yes,30,1976,1976,,,reserve,,49.33413028,7.031355928,11WD7WEIH2S--KWV,11WD7WEIH2S--C-A,0.37,http://www.spd-saar.de/uploads/media/konzept_bergbau.pdf,0.365,"Fossil fuels","Hard coal",,no,Uchtelfangen,220,"Amprion GmbH","List matching type: Single UBA power plant assigned to single BNetzA power plant",
BNA0849,"KNG Kraftwerk Rostock",Rostock,Rostock,"EnBW Energie Baden-Württemberg AG","Am Kühlturm 1",18147,Rostock,Mecklenburg-Vorpommern,DE,514,553,"Hard coal","Steam turbine",yes,150,1994,1994,,,operating,,54.14282177,12.13287489,11WD8ROST1C---P5,11WD8ROST1C----K,0.432,http://www.kraftwerk-rostock.de/#/kraftwerk/fakten/,0.41,"Fossil fuels","Hard coal",,no,Bentwisch,380,"50Hertz Transmission GmbH","List matching type: Single UBA power plant assigned to single BNetzA power plant",
BNA0861b,"HKW Römerbrücke",Kohleanlage,Saarbrücken-Römerbrücke,"Energie SaarLorLux AG",,66121,Saarbrücken,Saarland,DE,50,52.8,"Hard coal","Steam turbine",yes,94.0,1988,1988,2005,,operating,CHP,49.223899,7.014899,11WD7UCHT5XROSOK,11WD7UCHT5XROEMT,0.42,https://www.energie-saarlorlux.com/wp-content/broschueren/Broschuere-Heizkraftwerk.pdf,0.4375,"Fossil fuels","Hard coal",,no,"UW Römerbrücke",110,"Stadtwerke Saarbrücken AG / VSE Verteilnetz GmbH","List matching type: UBA capacity distributed proportionally to multiple BNetzA power plants",
BNA0926b,"Heizkraftwerk der Sappi Stockstadt GmbH","Konventionelles Sammelschienenkraftwerk",,"Sappi Stockstadt GmbH","Obernburger Straße 1-9",63811,Stockstadt,Bayern,DE,24.8,,"Hard coal","Steam turbine",yes,,1969,1969,,,operating,,49.97745,9.06872,,,,,0.3475,"Fossil fuels","Hard coal",,no,"Primär Kundenanlage zur betrieblichen Eigenversorgung ; Verbindung mit Netz der allgemeinen Versorgung über Trafo 11 (110/20kV)",110,"Westnetz GmbH",,
BNA0934,"Heizkraftwerk Stuttgart-Gaisburg","GAI DT 14 neu",,"EnBW Energie Baden-Württemberg AG","Langwiesenweg 23",70376,Stuttgart,Baden-Württemberg,DE,22.6,,"Hard coal","Steam turbine",yes,,2009,2009,,,operating,,48.782453,9.231483,,,,,0.4475,"Fossil fuels","Hard coal",,no,Gaisburg,110,"Netze BW GmbH",,
BNA0935,"Restmüll-Heizkraftwerk Stuttgart-Münster","MÜN DT12",Stuttgart-Münster,"EnBW Energie Baden-Württemberg AG","Voltastraße 45",70376,Stuttgart,Baden-Württemberg,DE,45,47.7592,"Hard coal","Steam turbine",yes,183.698630136986,1982,1982,,,operating,CHP,48.815833,9.221111,11WD4MUST5G----B,11WD4MUST5X-DT-M,,,0.38,"Fossil fuels","Hard coal",,no,Münster,110,"Netze BW GmbH","List matching type: UBA capacity distributed proportionally to multiple BNetzA power plants",
BNA0936,"Restmüll-Heizkraftwerk Stuttgart-Münster","MÜN DT15",Stuttgart-Münster,"EnBW Energie Baden-Württemberg AG","Voltastraße 45",70376,Stuttgart,Baden-Württemberg,DE,45,47.7592,"Hard coal","Steam turbine",yes,183.698630136986,1984,1984,,,operating,CHP,48.815833,9.221111,11WD4MUST5G----B,11WD4MUST5X-DT-M,,,0.385,"Fossil fuels","Hard coal",,no,Münster,110,"Netze BW GmbH","List matching type: UBA capacity distributed proportionally to multiple BNetzA power plants",
BNA1500,"Werk Uelzen",,,"Nordzucker AG, Werk Uelzen","An der Zuckerfabrik 1",29525,Uelzen,Niedersachsen,DE,40,,"Hard coal","Steam turbine",yes,,1990,"vor 1945 / letzte Änderung 1990",,,special_case,,52.9751813,10.5573974,,,,,0.4,"Fossil fuels","Hard coal",,no,,20,SVO,,
BNA1405a,"Heizkraftwerk Magirusstraße",,,"Fernwärme Ulm GmbH","Magirusstr. 21",89077,Ulm,Baden-Württemberg,DE,20.7,,"Hard coal","Steam turbine",yes,,1978,1978,,,operating,,48.39704,9.96484,,,,,0.37,"Fossil fuels","Hard coal",,no,"SWU 1, SWU 2",10,"Stadtwerke Ulm/Neu-Ulm Netze GmbH ",,
BNA0969b,"Nord 2",2,"München-Nord 2","SWM Services GmbH",,85774,Unterföhring,Bayern,DE,332.7,365,"Hard coal","Steam turbine",yes,550,1991,1991,,,operating,CHP,48.180506,11.639612,11WD2NO2K000308Z,11WD2NOR20001055,,,0.4025,"Fossil fuels","Hard coal",,no,"HUW Föhring",110,"SWM Infrastruktur GmbH","List matching type: Single UBA power plant assigned to single BNetzA power plant",
BNA0998,Modellkraftwerk,MKV,"Völklingen-Fenne MKV","Steag GmbH","Saarbrücker Straße 135-137",66333,Völklingen-Fenne,Saarland,DE,179,233,"Hard coal","Steam turbine",yes,210,1982,1982,,,operating,CHP,49.249018,6.879244,11WD7VOLK5S--KWI,11WD7VOLK5S-MKV2,0.4,http://www.voelklingen-im-wandel.de/stadtteile-fenne.php,0.38,"Fossil fuels","Hard coal",,no,Fenne,110,"VSE Verteilnetz GmbH","List matching type: Single UBA power plant assigned to single BNetzA power plant",
BNA0999,Heizkraftwerk,HKV,"Völklingen-Fenne HKV","Steag GmbH","Saarbrücker Straße 135-137",66333,Völklingen-Fenne,Saarland,DE,211,233,"Hard coal","Steam turbine",yes,185,1989,1989,,,operating,CHP,49.249018,6.879244,11WD7VOLK5S--KWI,11WD7VOLK5S-HKVM,0.37,http://www.spd-saar.de/uploads/media/konzept_bergbau.pdf,0.3975,"Fossil fuels","Hard coal",,no,Fenne,110,"VSE Verteilnetz GmbH","List matching type: Single UBA power plant assigned to single BNetzA power plant",
BNA1005,"Kraftwerk Walheim","WAL 1","Walheim 1","EnBW Energie Baden-Württemberg AG",Mühlstraße,74399,Walheim,Baden-Württemberg,DE,96,107,"Hard coal","Steam turbine",no,,1964,1964,2011,,reserve,,49.017472,9.157389,,,,,0.4525,"Fossil fuels","Hard coal",,no,Walheim,110,"Netze BW GmbH","List matching type: Single UBA power plant assigned to single BNetzA power plant",
BNA1006,"Kraftwerk Walheim","WAL 2","Walheim 2","EnBW Energie Baden-Württemberg AG",Mühlstraße,74399,Walheim,Baden-Württemberg,DE,148,160,"Hard coal","Steam turbine",no,,1967,1967,2011,,reserve,,49.017472,9.157389,,,,,0.4525,"Fossil fuels","Hard coal",,no,Walheim,110,"Netze BW GmbH","List matching type: Single UBA power plant assigned to single BNetzA power plant",
BNA0403,Wedel,"Wedel 2","Wedel 2","Vattenfall Europe Wärme AG","Tinsdaler Weg 146",22880,Wedel,Schleswig-Holstein,DE,123,138.7,"Hard coal","Steam turbine",yes,,1962,1962,1993,,operating,CHP,53.56695702,9.724445343,11WD8WED15C----Q,11WD8WED15C---2K,0.36,http://www.abendblatt.de/hamburg/article108154203/Naturschuetzer-sorgen-fuer-hoehere-Umweltbelastung.html,0.4075,"Fossil fuels","Hard coal",,no,Wedel,110,"Stromnetz Hamburg GmbH","List matching type: Single UBA power plant assigned to single BNetzA power plant",
BNA0404,Wedel,"Wedel 1","Wedel 1","Vattenfall Europe Wärme AG","Tinsdaler Weg 146",22880,Wedel,Schleswig-Holstein,DE,137,151,"Hard coal","Steam turbine",yes,423,1961,1961,1993,,operating,CHP,53.56695702,9.724445343,11WD8WED15C----Q,11WD8WED15C---1M,0.36,http://www.abendblatt.de/hamburg/article108154203/Naturschuetzer-sorgen-fuer-hoehere-Umweltbelastung.html,0.4075,"Fossil fuels","Hard coal",,no,Wedel,110,"Stromnetz Hamburg GmbH","List matching type: Single UBA power plant assigned to single BNetzA power plant",
BNA1037,"Kraftwerk Werdohl-Elverlingsen",E4,"Werdohl-Elverlingsen 4","Mark-E AG",,58791,Werdohl,Nordrhein-Westfalen,DE,310,330,"Hard coal","Steam turbine",no,,1982,1982,,,operating,,51.276361,7.705667,11WD7GARE5XELKWD,11WD7ELVE2S-E4-9,,,0.38,"Fossil fuels","Hard coal",,no,U205,220,"Enervie AssetNetWork GmbH ","List matching type: Single UBA power plant assigned to single BNetzA power plant",
BNA1046a,Gersteinwerk,K2,"Gersteinwerk K2 (DT) (Werne)","RWE Generation SE",,59368,Werne,Nordrhein-Westfalen,DE,614,665.5,"Hard coal","Steam turbine",no,,1984,1984,,,operating,,51.672453,7.709947,11WD7GERS-X-KW-C,11WD7GERS1S-K2-7,,,0.385,"Fossil fuels","Hard coal",,no,"Gersteinwerk (380kV), Gersteinwerk (110kV) und Münster (110kV) ","380, 110","Amprion GmbH, Westnetz GmbH","List matching type: Single UBA power plant assigned to single BNetzA power plant",
BNA1061,Wilhelmshaven,1,"Wilhelmshaven (E.ON)","Uniper Kraftwerke GmbH ",,26386,Wilhelmshaven,Niedersachsen,DE,757,788.1,"Hard coal","Steam turbine",no,,1976,1976,,,operating,,53.565819,8.146245,11WD2WI1K000303F,11WD2WIL10000688,0.4,http://www.bund-niedersachsen.de/themen/kohlekraftwerke/kraftwerks_plaene/wilhelmshaven/,0.365,"Fossil fuels","Hard coal",,no,Maade,220,"TenneT TSO GmbH ","List matching type: Single UBA power plant assigned to single BNetzA power plant",
BNA1674,"Kraftwerk Wilhelmshaven","Kraftwerk Wilhelmshaven","Wilhelmshaven (Engie)","ENGIE Deutschland AG",Niedersachsendamm,26386,Wilhelmshaven,Niedersachsen,DE,731,830,"Hard coal","Steam turbine",no,,2015,2015,,,operating,,53.578698,8.132685,11XGSKW-WHV----V,11WD2WILH0001255,,,0.4625,"Fossil fuels","Hard coal",,no,Maade,380,"TenneT TSO GmbH","List matching type: Single UBA power plant assigned to single BNetzA power plant",
BNA1075a,"HKW Nord","Generator A","Wolfsburg Nord","Volkswagen AG",,38436,Wolfsburg,Niedersachsen,DE,61.5,70,"Hard coal","Steam turbine",yes,377.5,2000,2000,2000,,operating,CHP,51.25292,9.43796,,,,,0.425,"Fossil fuels","Hard coal",,no,"UW West",50,"VW Kraftwerk GmbH","List matching type: UBA capacity distributed proportionally to multiple BNetzA power plants",
BNA1075b,"HKW Nord","Generator B","Wolfsburg Nord","Volkswagen AG",,38436,Wolfsburg,Niedersachsen,DE,61.5,70,"Hard coal","Steam turbine",yes,377.5,2000,2000,2000,,operating,CHP,52.43279,10.78611,,,,,0.425,"Fossil fuels","Hard coal",,no,"UW Ost",50,"VW Kraftwerk GmbH","List matching type: UBA capacity distributed proportionally to multiple BNetzA power plants",
BNA1076a,"HKW West","Block 1","Wolfsburg West 1","Volkswagen AG",,38436,Wolfsburg,Niedersachsen,DE,138.5,153,"Hard coal","Steam turbine",yes,140,1985,1985,,,operating,CHP,51.25292,9.43796,11WD2WBWK000317H,11WD2WBW1000039N,,,0.3875,"Fossil fuels","Hard coal",,no,"UW Wolfsburg",110,"VW Kraftwerk GmbH","List matching type: Single UBA power plant assigned to single BNetzA power plant",
BNA1076b,"HKW West","Block 2","Wolfsburg West 2","Volkswagen AG",,38436,Wolfsburg,Niedersachsen,DE,138.5,153,"Hard coal","Steam turbine",yes,140,1985,1985,,,operating,CHP,52.44223,10.76454,11WD2WBWK000317H,11WD2WBW2000040U,,,0.3875,"Fossil fuels","Hard coal",,no,"UW Wolfsburg",110,"VW Kraftwerk GmbH","List matching type: Single UBA power plant assigned to single BNetzA power plant",
BNA1084,"HKW Elberfeld ","Block 3",Wuppertal-Elberfeld,"WSW Energie & Wasser AG",,42117,Wuppertal,Nordrhein-Westfalen,DE,85,100,"Hard coal","Steam turbine",yes,201,1989,1989,,,operating,CHP,51.24835,7.11874,,,,,0.3975,"Fossil fuels","Hard coal",,no,,110,"WSW Netz GmbH ","List matching type: Single UBA power plant assigned to single BNetzA power plant",
BNA1093,Zolling,"Zolling Block 5","Zolling-Leininger 5","ENGIE Deutschland AG","Leininger Str. 1",85406,Zolling,Bayern,DE,472,474,"Hard coal","Steam turbine",yes,150,1986,1986,2011,,operating,CHP,48.455353,11.799456,11WD2ZOLL0002880,11WD2ZOL50001274,,,0.4525,"Fossil fuels","Hard coal",,no,"Feld 1 / LS 275",220,"TenneT TSO GmbH ","List matching type: Single UBA power plant assigned to single BNetzA power plant",
BNA0010a,RADAG,,Albbruck-Dogern,"RWE Vertrieb AG","Kraftwerkstrasse 34",79774,Albbruck,Baden-Württemberg,DE,79.5,83.64783,Hydro,Run-of-river,no,,1933,1933,,,operating,,47.58629,8.13207,,,,,0.8,"Renewable energy",Hydro,,no,Tiengen,110,"Amprion GmbH","List matching type: UBA capacity distributed proportionally to multiple BNetzA power plants",
BNA0012c,"Werkskraftwerk Sappi Alfeld",Wasserturbine,,"Sappi Alfeld GmbH","Mühlenmarsch 1",31061,Alfeld,Niedersachsen,DE,0.1,,Hydro,Run-of-river,no,,1912,1912,,,operating,,51.98513,9.82246,,,,,0.8,"Renewable energy",Hydro,,yes,,,,,
BNA0024,"KW Amlach",Amlach,,"TIWAG-Tiroler Wasserkraft AG",,A-9900,Amlach,Österreich,AT,60,,Hydro,Run-of-river,no,,1989,1989,,,operating,,46.8142048,12.761757,,,,,0.8,"Renewable energy",Hydro,,no,"UW Amlach",110,"TIWAG-Netz AG/APG bzw. Tennet",,
BNA1102,Bigge,,,"Bigge Energie GmbH & Co. KG","In der Stesse 14",57439,Attendorn,Nordrhein-Westfalen,DE,15,,Hydro,Run-of-river,no,,1965,1965,,,operating,,51.093173,7.86272,,,,,0.8,"Renewable energy",Hydro,,no,Biggekraftwerk,10,"BIGGE ENERGIE GmbH & Co. KG",,
BNA0042,Egglfing,Egglfing,,"Innwerk AG","Am Innwerk 13",94072,"Bad Füssing",Bayern,DE,40.4,,Hydro,Run-of-river,no,,1944,1944,,,operating,,48.3206154,13.3160755,,,,,0.8,"Renewable energy",Hydro,,no,"Schaltanlage vor Ort",110,"Bayernwerk AG",,
BNA0045,"Rheinkraftwerk Säckingen",Säckingen,,"EnBW Energie Baden-Württemberg AG","Murger Weg 2",79713,"Bad Säckingen",Baden-Württemberg,DE,36.8,,Hydro,Run-of-river,no,,1966,1966,,,operating,,47.5585312,7.9556579,,,,,0.8,"Renewable energy",Hydro,,no,"Säckingen bzw. CH",110,"Netze BW GmbH",,
BNA0046,Säckingen,Säckingen,"Säckingen 1 bis 4","Schluchseewerk Aktiengesellschaft","Stollenweg 2",79713,"Bad Säckingen",Baden-Württemberg,DE,360,370,Hydro,"Pumped storage",no,,1966,1966,,,operating,,47.565416,7.954035,11WD4SWSW5HD7--F,11WD4SAEK2HD7--Y,,,0.75,"Renewable energy",Hydro,,no,Kühmoos,220,"Amprion/Transnet BW","List matching type: Single UBA power plant assigned to single BNetzA power plant",
BNA0065,Bergheim,entfällt,,"Donau-Wasserkraft AG",,86673,Bergheim,Bayern,DE,23.7,,Hydro,Run-of-river,no,,1970,1970,,,operating,,48.750807,11.273237,,,,,0.8,"Renewable energy",Hydro,,no,"loco Kraftwerk","110, 16,7 Hz","DB Energie GmbH",,
BNA1098,"Weserkraftwerk Bremen",WKB,,"Weserkraftwerk Bremen GmbH & Co. KG",,28207,"Bremen (Hastedt)",Bremen,DE,9.9,,Hydro,Run-of-river,no,,2012,2012,,,operating,,53.061134,8.864937,,,,,0.8,"Renewable energy",Hydro,,yes,,10,"Wesernetz Bremen GmbH",,
BNA1118,Dessau,Dessau,,"Uniper Kraftwerke GmbH ",Dessau,86977,Burggen,Bayern,DE,10.3,,Hydro,Run-of-river,no,,1967,1967,,,operating,,47.739292,10.825702,,,,,0.8,"Renewable energy",Hydro,,no,"Schaltanlage vor Ort",110,"Bayernwerk AG",,
BNA0173,Alzwerke,,,"Alzwerke GmbH","Johannes-Hess Straße 24",84489,Burghausen,Bayern,DE,45,,Hydro,Run-of-river,no,,1922,1922,,,operating,,48.1769,12.84045,,,,,0.8,"Renewable energy",Hydro,,no,Wacker,10,Wacker-intern,,
BNA1126,Dettingen,Dettingen,,"Kernkraftwerk Obrigheim GmbH",,88451,Dettingen,Baden-Württemberg,DE,11,,Hydro,Run-of-river,no,,1927,1927,,,operating,,48.527536,9.3488325,,,,,0.8,"Renewable energy",Hydro,,no,,20,"Netze BW GmbH",,
BNA1129,Dingolfing,Dingolfing,,"Uniper Kraftwerke GmbH ","Bayernwerkstraße 55",84130,Dingolfing,Bayern,DE,15,,Hydro,Run-of-river,no,,1957,1957,,,operating,,48.63404,12.48369,,,,,0.8,"Renewable energy",Hydro,,no,"Schaltanlage vor Ort","20 und 110","Bayernwerk AG",,
BNA0010b,WKW,,Albbruck-Dogern,"RWE Vertrieb AG",Zollstrasse,79804,Dogern,Baden-Württemberg,DE,24,25.25217,Hydro,Run-of-river,no,,2009,2009,,,operating,,47.598482,8.170982,,,,,0.8,"Renewable energy",Hydro,,yes,Tiengen,110,"Amprion GmbH","List matching type: UBA capacity distributed proportionally to multiple BNetzA power plants",
BNA0228,Waldeck1/Bringhausen,Waldeck1/Bringhausen,"Waldeck I / Eder","Uniper Kraftwerke GmbH ","Kraftwerkstraße 10",34549,"Edertal Hemfurth-Edersee",Hessen,DE,145,147.3,Hydro,"Pumped storage",no,,1931,1931,2009,,operating,,51.167139,9.046832,,,,,0.75,"Renewable energy",Hydro,,no,"Schaltanlage vor Ort",110,"Avacon AG","List matching type: Single UBA power plant assigned to single BNetzA power plant",
BNA0229,"Waldeck 2","Waldeck 2","Waldeck II / Eder","Uniper Kraftwerke GmbH ","Kraftwerkstraße 10",34549,"Edertal Hemfurth-Edersee",Hessen,DE,480,480,Hydro,"Pumped storage",no,,1974,1974,2009,,operating,,51.167139,9.046832,11WD2W2--0002757,11WD2W2M20000748,,,0.75,"Renewable energy",Hydro,,no,"Schaltanlage vor Ort",380,"TenneT TSO GmbH ","List matching type: Single UBA power plant assigned to single BNetzA power plant",
BNA0230,Hemfurth,Hemfurth,,"Uniper Kraftwerke GmbH ",Ederstraße,34549,"Edertal Hemfurth-Edersee",Hessen,DE,20,,Hydro,Run-of-river,no,,1915,1915,,,operating,,51.167139,9.046832,,,,,0.8,"Renewable energy",Hydro,,no,"Schaltanlage vor Ort",110,"Avacon AG",,
BNA1134,Eitting,Eitting,,"Uniper Kraftwerke GmbH ","Am Moosrain 10",85462,Eitting,Bayern,DE,26,,Hydro,Run-of-river,no,,1925,1925,,,operating,,48.3585905,11.8821921,,,,,0.8,"Renewable energy",Hydro,,no,"Schaltanlage vor Ort","20 und 110","Bayernwerk AG/DB Energie GmbH",,
BNA1135,Fankel,,,"RWE Vertrieb AG",,56821,Ellenz-Poltersdorf,Rheinland-Pfalz,DE,16.4,,Hydro,Run-of-river,no,,1963,1963,,,operating,,50.123918,7.225915,,,,,0.8,"Renewable energy",Hydro,,no,,20,"Westnetz GmbH",,
BNA1136,Ellgau,,,"Bayerische Elektrizitätswerke GmbH",,86679,Ellgau,Bayern,DE,9.7,,Hydro,Run-of-river,no,,1952,1952,,,operating,,48.596746,10.8789,,,,,0.8,"Renewable energy",Hydro,,no,"UW Ellgau",110,"LEW Verteilnetz GmbH",,
BNA1137,Enkirch,,,"RWE Vertrieb AG",,56850,Enkirch,Rheinland-Pfalz,DE,18.4,,Hydro,Run-of-river,no,,1966,1966,,,operating,,49.97667,7.127777,,,,,0.8,"Renewable energy",Hydro,,no,,20,"Westnetz GmbH",,
BNA0259,Ering,Ering,,"Innwerk AG","Innwerkstraße 38",94140,Ering,Bayern,DE,36.5,,Hydro,Run-of-river,no,,1942,1942,,,operating,,48.2935129,13.1585196,,,,,0.8,"Renewable energy",Hydro,,no,"Schaltanlage vor Ort",110,"Bayernwerk AG",,
BNA1140,Altheim,Altheim,,"Uniper Kraftwerke GmbH ","Kraftwerkstraße 22",84051,Essenbach,Bayern,DE,17.8,,Hydro,Run-of-river,no,,1951,1951,,,operating,,51.536513,14.382898,,,,,0.8,"Renewable energy",Hydro,,no,"Schaltanlage vor Ort",110,"Bayernwerk AG",,
BNA0268,"Pumpspeicherwerk Rönkhausen",PSW,"Rönkhausen 1 u. 2 / Glingetal","Mark-E AG",,57413,Finnentrop,Nordrhein-Westfalen,DE,138,140,Hydro,"Pumped storage",no,,1969,1969,2003,,operating,,51.22475,7.99281,,,,,0.75,"Renewable energy",Hydro,,no,"U 101 und U 102",110,"Enervie AssetNetWork GmbH ","List matching type: Single UBA power plant assigned to single BNetzA power plant",
BNA0278,"Rudolf-Fettweis-Werk     ","Forb/ Murgwerk",,"EnBW Energie Baden-Württemberg AG","Werkstraße 5",76596,Forbach,Baden-Württemberg,DE,22,,Hydro,Run-of-river,no,,1918,1918,,,operating,,48.6731884,8.355705841,,,,,0.8,"Renewable energy",Hydro,,no,Forbach,110,"Netze BW GmbH",,
BNA0279,"Rudolf-Fettweis-Werk     ","Pumpspeicherkraftwerk Schwarzenbachwerk",,"EnBW Energie Baden-Württemberg AG","Werkstraße 5",76596,Forbach,Baden-Württemberg,DE,43,,Hydro,Run-of-river,no,,1926,1926,,,operating,,48.6693835,8.353047617,,,,,0.8,"Renewable energy",Hydro,,no,Forbach,110,"Netze BW GmbH",,
BNA1143,Serrig,,,"RWE Vertrieb AG",,54450,Freudenburg,Rheinland-Pfalz,DE,12.1,,Hydro,Run-of-river,no,,1985,1985,,,operating,,49.566954,6.592348,,,,,0.8,"Renewable energy",Hydro,,no,,20,"Westnetz GmbH",,
BNA0324,Gars,,,"VERBUND-Innkraftwerke GmbH","Agg 4",83536,Gars,Bayern,DE,25,,Hydro,Run-of-river,no,,1938,1938,,,operating,,48.15395,12.31107,,,,,0.8,"Renewable energy",Hydro,,no,"UW Gars",110,"Bayernwerk AG",,
BNA0327,Geesthacht,"PSS A","Geesthacht A-C / Elbe","Vattenfall Wasserkraft GmbH & Co.KG","Elbuferstr. 49",21502,Geesthacht,Schleswig-Holstein,DE,119.1,120,Hydro,"Pumped storage",no,,1958,1958,,,operating,,53.42605,10.3359,,,,,0.75,"Renewable energy",Hydro,,no,Bergedorf,110,"Stromnetz Hamburg GmbH","List matching type: UBA capacity distributed proportionally to multiple BNetzA power plants",
BNA0328,Geesthacht,"PSS B","Geesthacht A-C / Elbe","Vattenfall Wasserkraft GmbH & Co.KG","Elbuferstr. 49",21502,Geesthacht,Schleswig-Holstein,DE,,,Hydro,"Pumped storage",no,,1958,1958,,,operating,,53.42605,10.3359,,,,,0.75,"Renewable energy",Hydro,,no,Bergedorf,110,"Stromnetz Hamburg GmbH","List matching type: UBA capacity distributed proportionally to multiple BNetzA power plants",
BNA0329,Geesthacht,"PSS C","Geesthacht A-C / Elbe","Vattenfall Wasserkraft GmbH & Co.KG","Elbuferstr. 49",21502,Geesthacht,Schleswig-Holstein,DE,,,Hydro,"Pumped storage",no,,1958,1958,,,operating,,53.42605,10.3359,,,,,0.75,"Renewable energy",Hydro,,no,Bergedorf,110,"Stromnetz Hamburg GmbH","List matching type: UBA capacity distributed proportionally to multiple BNetzA power plants",
BNA0337,"PSW Langenprozelten",entfällt,"Langenprozelten / Main","Donau-Wasserkraft AG",,97737,Gemünden,Bayern,DE,164,168.4,Hydro,"Pumped storage",no,,1974,1974,,,operating,,50.05313,9.58137,,,,,0.75,"Renewable energy",Hydro,,no,"loco Kraftwerk","110, 16,7 Hz","DB Energie GmbH","List matching type: Single UBA power plant assigned to single BNetzA power plant",
BNA0350,Goldisthal,"PSS A","Goldisthal A / Schwarzatal","Vattenfall Wasserkraft GmbH & Co.KG","Am Rotseifenbach",98746,Goldisthal,Thüringen,DE,1052,265,Hydro,"Pumped storage",no,,2004,2004,,,operating,,50.50975864,11.02087498,11WD8GOLD1H----6,11WD8GOLD1H---AL,0.8,https://www.vde.com/de/fg/ETG/Archiv/Aktuelles/Seiten/Goldisthal.aspx,0.75,"Renewable energy",Hydro,,no,Altenfeld,380,"50Hertz Transmission GmbH","List matching type: Single UBA power plant assigned to single BNetzA power plant",
BNA0351,Goldisthal,"PSS B","Goldisthal B / Schwarzatal","Vattenfall Wasserkraft GmbH & Co.KG","Am Rotseifenbach",98746,Goldisthal,Thüringen,DE,,265,Hydro,"Pumped storage",no,,2003,2003,,,operating,,50.50975864,11.02087498,11WD8GOLD1H----6,11WD8GOLD1H---BJ,,,0.75,"Renewable energy",Hydro,,no,Altenfeld,380,"50Hertz Transmission GmbH","List matching type: Single UBA power plant assigned to single BNetzA power plant",
BNA0352,Goldisthal,"PSS C","Goldisthal C / Schwarzatal","Vattenfall Wasserkraft GmbH & Co.KG","Am Rotseifenbach",98746,Goldisthal,Thüringen,DE,,265,Hydro,"Pumped storage",no,,2004,2004,,,operating,,50.50975864,11.02087498,11WD8GOLD1H----6,11WD8GOLD1H---CH,,,0.75,"Renewable energy",Hydro,,no,Altenfeld,380,"50Hertz Transmission GmbH","List matching type: Single UBA power plant assigned to single BNetzA power plant",
BNA0353,Goldisthal,"PSS D","Goldisthal D / Schwarzatal","Vattenfall Wasserkraft GmbH & Co.KG","Am Rotseifenbach",98746,Goldisthal,Thüringen,DE,,265,Hydro,"Pumped storage",no,,2004,2004,,,operating,,50.50975864,11.02087498,11WD8GOLD1H----6,11WD8GOLD1H---DF,,,0.75,"Renewable energy",Hydro,,no,Altenfeld,380,"50Hertz Transmission GmbH","List matching type: Single UBA power plant assigned to single BNetzA power plant",
BNA0362,"KW Wyhlen","KW Wyhlen",,"Energiedienst AG",,79639,Grenzach-Wyhlen,Baden-Württemberg,DE,37.9,,Hydro,Run-of-river,no,,1912,1912,,,operating,,47.5523554,7.6580881,,,,,0.8,"Renewable energy",Hydro,,no,"Umspannwerk Wyhlen",20,"ED Netze GmbH",,
BNA0364,Jochenstein,Jochenstein,"Jochenstein / Donau","Innwerk AG","Am Kraftwerk 2",94107,Griesbach,Bayern,DE,66,133.7,Hydro,Run-of-river,no,,1955,1955,,,operating,,48.5195636,13.7085052,,,,,0.8,"Renewable energy",Hydro,,no,"Schaltanlage vor Ort",220,"Bayernwerk AG","List matching type: Single UBA power plant assigned to single BNetzA power plant",
BNA0422,Happurg,Happurg,"Happurg 1 bis 4 / Pegnitz","Uniper Kraftwerke GmbH ","Haupstraße 26",91230,Happurg,Bayern,DE,160,162.1,Hydro,"Pumped storage",no,,1958,1958,,,special_case,,49.48712,11.47479,,,,,0.75,"Renewable energy",Hydro,,no,"Schaltanlage vor Ort",110,"Bayernwerk AG","List matching type: Single UBA power plant assigned to single BNetzA power plant",
BNA0426,Häusern,Häusern,"Häusern 1 bis 4","Schluchseewerk Aktiengesellschaft","Schwarzabruck 2",79837,Häusern,Baden-Württemberg,DE,100,145,Hydro,"Pumped storage",no,,1931,1931,1948,,operating,,47.75459,8.18787,,,,,0.75,"Renewable energy",Hydro,,no,"Tiengen / Gurtweil",110,"Amprion/Transnet BW","List matching type: Single UBA power plant assigned to single BNetzA power plant",
BNA1152,Schwammenauel,,,"RWE Vertrieb AG",,52396,Heimbach,Nordrhein-Westfalen,DE,14,,Hydro,Run-of-river,no,,1938,1938,,,operating,,50.628507,6.479111,,,,,0.8,"Renewable energy",Hydro,,no,,20,"Westnetz GmbH",,
BNA1153,Heimbach,,,"RWE Vertrieb AG",,52396,Heimbach,Nordrhein-Westfalen,DE,16,,Hydro,Run-of-river,no,,1905,1905,,,operating,,50.628568,6.451776,,,,,0.8,"Renewable energy",Hydro,,no,,20,"Westnetz GmbH",,
BNA0443,Koepchenwerk,Koepchenwerk,"Koepchenwerk / Ruhr","RWE Power AG",,58313,Herdecke,Nordrhein-Westfalen,DE,165,165,Hydro,"Pumped storage",no,,1989,1989,1989,,operating,,51.41048,7.45314,11WD7KOEP2P--KWG,11WD7KOEP2P--5-G,0.75,http://www.rwe.com/web/cms/de/2720904/g=2760602/rwe-generation-se/standorte/deutschland/psw-herdecke/,0.75,"Renewable energy",Hydro,,no,Garenfeld,220,"Amprion GmbH","List matching type: Single UBA power plant assigned to single BNetzA power plant",
BNA1157,Höchstädt,,,"Bayerische Elektrizitätswerke GmbH",,89420,Höchstädt,Bayern,DE,10,,Hydro,Run-of-river,no,,1982,1982,,,operating,,48.603156,10.582724,,,,,0.8,"Renewable energy",Hydro,,no,"KW Höchstädt",20,"LEW Verteilnetz GmbH",,
BNA0465,"Hohenwarte 1","PSS A",,"Vattenfall Wasserkraft GmbH & Co.KG","Preßwitzer Str. 25",07338,Hohenwarte,Thüringen,DE,59.8,,Hydro,Run-of-river,no,,1959,1959,,,operating,,50.61433423,11.49212837,,,,,0.8,"Renewable energy",Hydro,,no,Remptendorf,110,"TEN Thüringer Energienetze GmbH",,
BNA0466,"Hohenwarte 1","PSS B",,"Vattenfall Wasserkraft GmbH & Co.KG","Preßwitzer Str. 25",07338,Hohenwarte,Thüringen,DE,,,Hydro,Run-of-river,no,,1959,1959,,,operating,,50.61433423,11.49212837,,,,,0.8,"Renewable energy",Hydro,,no,Remptendorf,110,"TEN Thüringer Energienetze GmbH",,
BNA0467,"Hohenwarte 2","PSS A","Hohenwarte II  A bis H","Vattenfall Wasserkraft GmbH & Co.KG","Preßwitzer Str. 25",07338,Hohenwarte,Thüringen,DE,317.8,320,Hydro,"Pumped storage",no,,1966,1966,,,operating,,50.60384898,11.47517681,,,,,0.75,"Renewable energy",Hydro,,no,Remptendorf,220,"50Hertz Transmission GmbH","List matching type: UBA capacity distributed proportionally to multiple BNetzA power plants",
BNA0468,"Hohenwarte 2","PSS B","Hohenwarte II  A bis H","Vattenfall Wasserkraft GmbH & Co.KG","Preßwitzer Str. 25",07338,Hohenwarte,Thüringen,DE,,,Hydro,"Pumped storage",no,,1966,1966,,,operating,,50.60384898,11.47517681,,,,,0.75,"Renewable energy",Hydro,,no,Remptendorf,220,"50Hertz Transmission GmbH","List matching type: UBA capacity distributed proportionally to multiple BNetzA power plants",
BNA0469,"Hohenwarte 2","PSS C","Hohenwarte II  A bis H","Vattenfall Wasserkraft GmbH & Co.KG","Preßwitzer Str. 25",07338,Hohenwarte,Thüringen,DE,,,Hydro,"Pumped storage",no,,1966,1966,,,operating,,50.60384898,11.47517681,,,,,0.75,"Renewable energy",Hydro,,no,Remptendorf,220,"50Hertz Transmission GmbH","List matching type: UBA capacity distributed proportionally to multiple BNetzA power plants",
BNA0470,"Hohenwarte 2","PSS D","Hohenwarte II  A bis H","Vattenfall Wasserkraft GmbH & Co.KG","Preßwitzer Str. 25",07338,Hohenwarte,Thüringen,DE,,,Hydro,"Pumped storage",no,,1966,1966,,,operating,,50.60384898,11.47517681,,,,,0.75,"Renewable energy",Hydro,,no,Remptendorf,220,"50Hertz Transmission GmbH","List matching type: UBA capacity distributed proportionally to multiple BNetzA power plants",
BNA0471,"Hohenwarte 2","PSS E","Hohenwarte II  A bis H","Vattenfall Wasserkraft GmbH & Co.KG","Preßwitzer Str. 25",07338,Hohenwarte,Thüringen,DE,,,Hydro,"Pumped storage",no,,1966,1966,,,operating,,50.60384898,11.47517681,,,,,0.75,"Renewable energy",Hydro,,no,Remptendorf,220,"50Hertz Transmission GmbH","List matching type: UBA capacity distributed proportionally to multiple BNetzA power plants",
BNA0472,"Hohenwarte 2","PSS F","Hohenwarte II  A bis H","Vattenfall Wasserkraft GmbH & Co.KG","Preßwitzer Str. 25",07338,Hohenwarte,Thüringen,DE,,,Hydro,"Pumped storage",no,,1966,1966,,,operating,,50.60384898,11.47517681,,,,,0.75,"Renewable energy",Hydro,,no,Remptendorf,220,"50Hertz Transmission GmbH","List matching type: UBA capacity distributed proportionally to multiple BNetzA power plants",
BNA0473,"Hohenwarte 2","PSS G","Hohenwarte II  A bis H","Vattenfall Wasserkraft GmbH & Co.KG","Preßwitzer Str. 25",07338,Hohenwarte,Thüringen,DE,,,Hydro,"Pumped storage",no,,1966,1966,,,operating,,50.60384898,11.47517681,,,,,0.75,"Renewable energy",Hydro,,no,Remptendorf,220,"50Hertz Transmission GmbH","List matching type: UBA capacity distributed proportionally to multiple BNetzA power plants",
BNA0474,"Hohenwarte 2","PSS H","Hohenwarte II  A bis H","Vattenfall Wasserkraft GmbH & Co.KG","Preßwitzer Str. 25",07338,Hohenwarte,Thüringen,DE,,,Hydro,"Pumped storage",no,,1966,1966,,,operating,,50.60384898,11.47517681,,,,,0.75,"Renewable energy",Hydro,,no,Remptendorf,220,"50Hertz Transmission GmbH","List matching type: UBA capacity distributed proportionally to multiple BNetzA power plants",
BNA0494,"Rheinkraftwerk Iffezheim","Iffezheim M1-M5","Iffezheim 1-5 / Rhein","Rheinkraftwerk Iffezheim GmbH","An der Staustufe 27",76473,Iffezheim,Baden-Württemberg,DE,148,152,Hydro,Run-of-river,no,,2013,"1978 / 2013",,,operating,,48.83135,8.11216,11WD4IFFE5G----Z,11WD4IFFE5H----T,,,0.8,"Renewable energy",Hydro,,yes,Iffezheim,110,"Netze BW GmbH","List matching type: Single UBA power plant assigned to single BNetzA power plant",
BNA0496,"KW Imst",Imsterberg,,"TIWAG-Tiroler Wasserkraft AG",,A-6491,Imsterberg,Österreich,AT,89,,Hydro,Run-of-river,no,,1956,1956,,,operating,,47.212246,10.721519,,,,,0.8,"Renewable energy",Hydro,,no,"UW Imst",110,"TIWAG-Netz AG/APG bzw. Tennet",,
BNA1160,Ingolstadt,entfällt,,"Donau-Wasserkraft AG",,85049,Ingolstadt,Bayern,DE,19.8,,Hydro,Run-of-river,no,,1971,1971,,,operating,,48.750317,11.412153,,,,,0.8,"Renewable energy",Hydro,,no,"UW Schönewalde","110, 16,7 Hz","DB Energie GmbH",,
BNA0505,"KW Jenbach",Jenbach,,"TIWAG-Tiroler Wasserkraft AG",,A-6200,Jenbach,Österreich,AT,79,,Hydro,Run-of-river,no,,1926,1926,,,operating,,47.393249,11.788647,,,,,0.8,"Renewable energy",Hydro,,no,"UW Jenbach",110,"TIWAG-Netz AG/APG bzw. Tennet",,
BNA1169,Kaufering,Kaufering,,"Uniper Kraftwerke GmbH ",Lechfeldwiesen,86916,Kaufering,Bayern,DE,16.7,,Hydro,Run-of-river,no,,1975,1975,,,operating,,48.084026,10.864936,,,,,0.8,"Renewable energy",Hydro,,no,"Schaltanlage vor Ort",110,"Bayernwerk AG",,
BNA0529,Braunau-Simbach,Braunau-Simbach,"Braunau-Simbach / Inn","Innwerk AG","Ach 6",84375,Kirchdorf,Bayern,DE,50,101.3,Hydro,Run-of-river,no,,1953,1953,,,operating,,48.063827,10.128443,,,,,0.8,"Renewable energy",Hydro,,no,"Schaltanlage vor Ort",110,"APG/Bayernwerk AG","List matching type: Single UBA power plant assigned to single BNetzA power plant",
BNA1175,Unteropfingen,Unteropfingen,,"Facilma Grundbesitzmanagement und -service GmbH & Co. Besitz KG","Kraftwerkstraße 4",88457,Kirchdorf,Baden-Württemberg,DE,14.2,,Hydro,Run-of-river,no,,,1,,,operating,,48.0612649,10.1284379,,,,,,"Renewable energy",Hydro,,no,,20,"Netze BW GmbH",,
BNA1181,Koblenz,,,"RWE Vertrieb AG",,56073,Koblenz,Rheinland-Pfalz,DE,16,,Hydro,Run-of-river,no,,1951,1951,,,operating,,50.365855,7.58171,,,,,0.8,"Renewable energy",Hydro,,no,,20,"KEVAG Verteilnetz GmbH",,
BNA0540,Walchensee,Walchensee,"Walchensee / Isar","Uniper Kraftwerke GmbH ","Altjoch 21",82431,"Kochel am See",Bayern,DE,124,125.6,Hydro,Reservoir,no,,1924,1924,1955,,operating,,47.631354,11.337054,,,,,0.8,"Renewable energy",Hydro,,no,"Schaltanlage vor Ort",110,"Bayernwerk AG/DB Energie GmbH","List matching type: Single UBA power plant assigned to single BNetzA power plant",
BNA0558,Erzhausen,,"Erzhausen 1-4 / Leine","Statkraft Markets GmbH",,37547,Kreiensen,Niedersachsen,DE,220,222.86,Hydro,"Pumped storage",no,,1964,1964,,,operating,,51.89912,9.92452,,,0.75,http://www.statkraft.de/globalassets/old-contains-the-old-folder-structure/documents/de/kraftwerke-in-deutschland/erzhausen_fb_2014_rz3mini.pdf,0.75,"Renewable energy",Hydro,,no,Erzhausen,220,"TenneT TSO GmbH ","List matching type: Single UBA power plant assigned to single BNetzA power plant",
BNA0567a,"KW Kühtai","Kühtai Ma1",,"TIWAG-Tiroler Wasserkraft AG",,A-6183,Kühtai,Österreich,AT,144.5,,Hydro,Run-of-river,no,,1981,1981,,,operating,,47.207784,11.005735,11WD2KUET000160J,11WD2KUM1000161L,,,0.8,"Renewable energy",Hydro,,no,"UW Silz",220,"TIWAG-Netz AG/APG/TenneT",,
BNA0567b,"KW Kühtai","Kühtai Ma 2",,"TIWAG-Tiroler Wasserkraft AG",,A-6183,Kühtai,Österreich,AT,144.5,,Hydro,Run-of-river,no,,1981,1981,,,operating,,47.207784,11.005735,11WD2KUET000160J,11WD2KUM2000162B,,,0.8,"Renewable energy",Hydro,,no,"UW Silz",220,"TIWAG-Netz AG/APG/TenneT",,
BNA0825,"Rheinkraftwerk Reckingen",Reckingen,,"EnBW Energie Baden-Württemberg AG","Kraftwerkstraße 24",79790,Küssaberg,Baden-Württemberg,DE,19,,Hydro,Run-of-river,no,,1941,1941,,,operating,,47.57136,8.33826,,,,,0.8,"Renewable energy",Hydro,,no,"Reckingen bzw. CH",110,"Netze BW GmbH",,
BNA0583,Laufenburg,"KW Laufenburg","Laufenburg / Rhein","Energiedienst Holding AG",,CH-5080,Laufenburg,Schweiz,CH,104.4,110,Hydro,Run-of-river,no,,1914,1914,1994,,operating,,47.555936,8.049404,,,,,0.8,"Renewable energy",Hydro,,no,"110-kV-Schaltanlage Laufenburg",110,"ED Netze GmbH","List matching type: Single UBA power plant assigned to single BNetzA power plant",
BNA1189,Faimingen,entfällt,,"Obere Donau Kraftwerke AG",,89415,Lauingen,Bayern,DE,10.1,,Hydro,Run-of-river,no,,1965,1965,,,operating,,48.558394,10.411764,,,,,0.8,"Renewable energy",Hydro,,no,"loco Kraftwerk",20,"Netze BW GmbH",,
BNA1191,Urspring,Urspring,,"Uniper Kraftwerke GmbH ","Via Claudia",86983,Lechbruck,Bayern,DE,10.1,,Hydro,Run-of-river,no,,1966,1966,,,operating,,47.71598,10.825785,,,,,0.8,"Renewable energy",Hydro,,no,"Schaltanlage vor Ort",110,"Bayernwerk AG",,
BNA1192,Prem,Prem,,"Uniper Kraftwerke GmbH ","Am Premer Lechsee",86983,Lechbruck,Bayern,DE,19.2,,Hydro,Run-of-river,no,,1971,1971,,,operating,,47.692726,10.797592,,,,,0.8,"Renewable energy",Hydro,,no,"Schaltanlage vor Ort",110,"Bayernwerk AG",,
BNA0715,Lehmen,,,"RWE Vertrieb AG",,56332,Lehmen,Rheinland-Pfalz,DE,20,,Hydro,Run-of-river,no,,1962,1962,,,operating,,50.274724,7.458957,,,,,0.8,"Renewable energy",Hydro,,no,,20,"Westnetz GmbH",,
BNA0652,Markersbach,"PSS A","Markersbach A","Vattenfall Wasserkraft GmbH & Co.KG","Oberbeckenstr. 8",08352,Markersbach,Sachsen,DE,1045.2,175,Hydro,"Pumped storage",no,,1980,1980,,,operating,,50.51938,12.87976,11WD8MARK1H----7,11WD8MARK1H---AM,0.75,http://ins-erzgebirge.de/ausflugsziel.php?id=260,0.75,"Renewable energy",Hydro,,no,Röhrsdorf,380,"50Hertz Transmission GmbH","List matching type: Single UBA power plant assigned to single BNetzA power plant",
BNA0653,Markersbach,"PSS B","Markersbach B","Vattenfall Wasserkraft GmbH & Co.KG","Oberbeckenstr. 8",08352,Markersbach,Sachsen,DE,,175,Hydro,"Pumped storage",no,,1980,1980,,,operating,,50.51938,12.87976,11WD8MARK1H----7,11WD8MARK1H---BK,,,0.75,"Renewable energy",Hydro,,no,Röhrsdorf,380,"50Hertz Transmission GmbH","List matching type: Single UBA power plant assigned to single BNetzA power plant",
BNA0654,Markersbach,"PSS C","Markersbach C","Vattenfall Wasserkraft GmbH & Co.KG","Oberbeckenstr. 8",08352,Markersbach,Sachsen,DE,,175,Hydro,"Pumped storage",no,,1980,1980,,,operating,,50.51938,12.87976,11WD8MARK1H----7,11WD8MARK1H---CI,,,0.75,"Renewable energy",Hydro,,no,Röhrsdorf,380,"50Hertz Transmission GmbH","List matching type: Single UBA power plant assigned to single BNetzA power plant",
BNA0655,Markersbach,"PSS D","Markersbach D","Vattenfall Wasserkraft GmbH & Co.KG","Oberbeckenstr. 8",08352,Markersbach,Sachsen,DE,,175,Hydro,"Pumped storage",no,,1980,1980,,,operating,,50.51938,12.87976,11WD8MARK1H----7,11WD8MARK1H---DG,,,0.75,"Renewable energy",Hydro,,no,Röhrsdorf,380,"50Hertz Transmission GmbH","List matching type: Single UBA power plant assigned to single BNetzA power plant",
BNA0656,Markersbach,"PSS E","Markersbach E","Vattenfall Wasserkraft GmbH & Co.KG","Oberbeckenstr. 8",08352,Markersbach,Sachsen,DE,,175,Hydro,"Pumped storage",no,,1980,1980,,,operating,,50.51938,12.87976,11WD8MARK1H----7,11WD8MARK1H---EE,,,0.75,"Renewable energy",Hydro,,no,Röhrsdorf,380,"50Hertz Transmission GmbH","List matching type: Single UBA power plant assigned to single BNetzA power plant",
BNA0657,Markersbach,"PSS F","Markersbach F","Vattenfall Wasserkraft GmbH & Co.KG","Oberbeckenstr. 8",08352,Markersbach,Sachsen,DE,,175,Hydro,"Pumped storage",no,,1980,1980,,,operating,,50.51938,12.87976,11WD8MARK1H----7,11WD8MARK1H---FC,,,0.75,"Renewable energy",Hydro,,no,Röhrsdorf,380,"50Hertz Transmission GmbH","List matching type: Single UBA power plant assigned to single BNetzA power plant",
BNA1209,Meitingen,,,"Bayerische Elektrizitätswerke GmbH",,86405,Meitingen,Bayern,DE,11.3,,Hydro,Run-of-river,no,,1922,1922,,,operating,,48.546994,10.86507,,,,,0.8,"Renewable energy",Hydro,,no,"UW Meitingen",110,"LEW Verteilnetz GmbH",,
BNA1210,Merching,Merching,,"Uniper Kraftwerke GmbH ",Friedenaustraße,86504,Merching,Bayern,DE,12,,Hydro,Run-of-river,no,,1978,1978,,,operating,,48.2704497,10.9773463,,,,,0.8,"Renewable energy",Hydro,,no,"Schaltanlage vor Ort",110,"LEW Verteilnetz GmbH",,
BNA0669,"Pumpspeicherkraftwerk Glems","Pumpspeicherkraftwerk Glems",,"EnBW Energie Baden-Württemberg AG","Unterer Hof 2",72555,Metzingen-Glems,Baden-Württemberg,DE,90,,Hydro,Run-of-river,no,,1964,1964,,,operating,,48.50499,9.28692,,,0.74,http://www.gea.de/region+reutlingen/neckar+erms/pumpspeicherkraftwerk+in+glems+lecks+per+knopfdruck+schliessbar.2714095.htm,0.8,"Renewable energy",Hydro,,no,Metzingen,110,"Netze BW GmbH",,
BNA1213,Pfrombach,Pfrombach,,"Uniper Kraftwerke GmbH ","Am Kraftwerk 1",85368,Moosburg-Pfrombach,Bayern,DE,22.3,,Hydro,Run-of-river,no,,1929,1929,,,operating,,48.44132,11.99233,,,,,0.8,"Renewable energy",Hydro,,no,"Schaltanlage vor Ort",110,"Bayernwerk AG/DB Energie GmbH",,
BNA1214,Müden,,,"RWE Vertrieb AG",,56254,Müden,Rheinland-Pfalz,DE,16.4,,Hydro,Run-of-river,no,,1965,1965,,,operating,,52.521937,10.360381,,,,,0.8,"Renewable energy",Hydro,,no,,20,"Westnetz GmbH",,
BNA1216,Neef,,,"RWE Vertrieb AG",,56858,Neef,Rheinland-Pfalz,DE,16.4,,Hydro,Run-of-river,no,,1966,1966,,,operating,,50.087362,7.135809,,,,,0.8,"Renewable energy",Hydro,,no,,20,"Westnetz GmbH",,
BNA1672,Walgauwerk,,,"EnBW Energie Baden-Württenberg AG","Eichholz 1",A-06710,Nenzing,Österreich,AT,86,,Hydro,Run-of-river,no,,1984,1984,,,operating,,47.198858,9.669638,,,,,0.8,"Renewable energy",Hydro,,no,"Bürs / Werben",220,"Transnet BW GmbH",,
BNA0689,Bittenbrunn,entfällt,,"Donau-Wasserkraft AG",,86633,"Neuburg an der Donau",Bayern,DE,20.2,,Hydro,Run-of-river,no,,1969,1969,,,operating,,48.734459,11.14382,,,,,0.8,"Renewable energy",Hydro,,no,"loco Kraftwerk","110, 16,7 Hz","DB Energie GmbH",,
BNA0695,Neuötting,,,"VERBUND-Innkraftwerke GmbH","Innstr. 11",84524,Neuötting,Bayern,DE,26.1,,Hydro,Run-of-river,no,,1951,1951,,,operating,,48.24856,12.6882725,,,,,0.8,"Renewable energy",Hydro,,no,"UW Neuötting",110,"Bayernwerk AG",,
BNA1217,Niederaichbach,Niederaichbach,,"Uniper Kraftwerke GmbH ","Kraftwerkstraße 26",84100,Niederaichbach,Bayern,DE,16.2,,Hydro,Run-of-river,no,,1951,1951,,,operating,,48.6039132,12.3023425,,,,,0.8,"Renewable energy",Hydro,,no,"Schaltanlage vor Ort","20 und110","Bayernwerk AG",,
BNA1219,Gummering,Gummering,,"Uniper Kraftwerke GmbH ","Untere Au 60",84183,Niederviehbach,Bayern,DE,14.8,,Hydro,Run-of-river,no,,1957,1957,,,operating,,48.622456,12.398037,,,,,0.8,"Renewable energy",Hydro,,no,"Schaltanlage vor Ort","20 und110","Bayernwerk AG",,
BNA0721,Niederwartha,"PSS C",,"Vattenfall Wasserkraft GmbH & Co.KG","Am Fährhaus 4",01462,Niederwartha,Sachsen,DE,39.8,,Hydro,Run-of-river,no,,1957,1957,,,operating,,51.09153428,13.60982895,,,0.62,http://www.lars-rohwer.de/inhalte/2/aktuelles/67892/das-pumpspeicherwerk-niederwartha-zeitgemaess-und-gewollt-/index.html,0.8,"Renewable energy",Hydro,,no,Niederwartha,110,"ENSO Netz GmbH",,
BNA0722,Niederwartha,"PSS D",,"Vattenfall Wasserkraft GmbH & Co.KG","Am Fährhaus 4",01462,Niederwartha,Sachsen,DE,,,Hydro,Run-of-river,no,,1957,1957,,,operating,,51.09153428,13.60982895,,,0.62,http://www.lars-rohwer.de/inhalte/2/aktuelles/67892/das-pumpspeicherwerk-niederwartha-zeitgemaess-und-gewollt-/index.html,0.8,"Renewable energy",Hydro,,no,Niederwartha,110,"ENSO Netz GmbH",,
BNA0747,Nußdorf,Nußdorf,,"Innwerk AG","Am Inn 19",83131,Nußdorf,Bayern,DE,36.6,,Hydro,Run-of-river,no,,1982,1982,,,operating,,47.74473,12.13573,,,,,0.8,"Renewable energy",Hydro,,no,"Schaltanlage vor Ort",110,"Bayernwerk AG",,
BNA0748,Oberaudorf-Ebbs,Oberaudorf-Ebbs,,"Innwerk AG","Untere Innauen 1",83080,Oberaudorf,Bayern,DE,30,,Hydro,Run-of-river,no,,1992,1992,,,operating,,47.64133,12.19903,,,,,0.8,"Renewable energy",Hydro,,no,"Schaltanlage vor Ort",110,"APG/Bayernwerk AG",,
BNA1220,Aufkirchen,Aufkirchen,,"Uniper Kraftwerke GmbH ","Bayernwerkstraße 1",85445,Oberding,Bayern,DE,27,,Hydro,Run-of-river,no,,1924,1924,,,operating,,48.3066864,11.858847,,,,,0.8,"Renewable energy",Hydro,,no,"Schaltanlage vor Ort","20 und 110","Bayernwerk AG/DB Energie GmbH",,
BNA1221,Oberpeiching,,,"Bayerische Elektrizitätswerke GmbH",,86698,Oberndorf,Bayern,DE,11.9,,Hydro,Run-of-river,no,,1954,1954,,,operating,,48.646423,10.879086,,,,,0.8,"Renewable energy",Hydro,,no,"UW Oberpeiching",110,"LEW Verteilnetz GmbH",,
BNA0777,"Kopswerk I ","Masch. 1 bis 3",,"EnBW Energie Baden-Württemberg AG",,A-6794,Partenen,Österreich,AT,247,,Hydro,Run-of-river,no,,1968,1968,,,operating,,46.96845,10.05986,,,,,0.8,"Renewable energy",Hydro,,no,Bürs,220,"Transnet BW GmbH",,
BNA0778,"Kopswerk II ","Masch. 1 bis 3",,"EnBW Energie Baden-Württemberg AG",,A-6794,Partenen,Österreich,AT,525,,Hydro,Run-of-river,no,,2008,2008,,,operating,,46.96845,10.05986,11WD43VIWXHOILLM,11WD43KOP2HM3--D,,,0.8,"Renewable energy",Hydro,,no,Bürs,220,"Transnet BW GmbH",,
BNA0779,Obervermuntwerk,"Masch. 1 u. 2",,"EnBW Energie Baden-Württemberg AG",,A-6794,Partenen,Österreich,AT,29,,Hydro,Run-of-river,no,,1968,1968,,,operating,,46.96845,10.05986,,,,,0.8,"Renewable energy",Hydro,,no,Bürs,220,"Transnet BW GmbH",,
BNA0780,Vermuntwerk,"Masch. 1 bis 5",,"EnBW Energie Baden-Württemberg AG",,A-6794,Partenen,Österreich,AT,158,,Hydro,Run-of-river,no,,1930,1930,,,operating,,46.96845,10.05986,,,,,0.8,"Renewable energy",Hydro,,no,Bürs,220,"Transnet BW GmbH",,
BNA0782,Kachlet,Kachlet,,"Rhein-Main-Donau AG","Schleusenweg 10",94034,Passau,Bayern,DE,53.7,,Hydro,Run-of-river,no,,1927,1927,,,operating,,48.5797112,13.4082738,,,,,0.8,"Renewable energy",Hydro,,no,"Schaltanlage vor Ort",110,"Bayernwerk AG",,
BNA0784,Passau-Ingling,Passau-Ingling,,"Innwerk AG","Innstraße 121",94036,Passau,Bayern,DE,43.2,,Hydro,Run-of-river,no,,1965,1965,,,operating,,48.5533054,13.4336591,,,,,0.8,"Renewable energy",Hydro,,no,"Schaltanlage vor Ort",110,"APG/Bayernwerk AG",,
BNA0792,Perach,,,"VERBUND-Innkraftwerke GmbH",Niederperach,84567,Perach,Bayern,DE,19.4,,Hydro,Run-of-river,no,,1977,1977,,,operating,,48.0261021,12.789632,,,,,0.8,"Renewable energy",Hydro,,no,"UW Perach",110,"Bayernwerk AG",,
BNA0795,Geisling,Geisling,,"Rhein-Main-Donau AG",,93102,Pfatter,Bayern,DE,25,,Hydro,Run-of-river,no,,1985,1985,,,operating,,48.974806,12.344002,,,,,0.8,"Renewable energy",Hydro,,no,"Schaltanlage vor Ort",20,"Bayernwerk AG",,
BNA1228,Landau,Landau,,"Uniper Kraftwerke GmbH ","Stauseestraße 1",94431,Pilsting-Harburg,Bayern,DE,12.6,,Hydro,Run-of-river,no,,1984,1984,,,operating,,48.667862,12.660027,,,,,0.8,"Renewable energy",Hydro,,no,"Schaltanlage vor Ort",20,"Bayernwerk AG",,
BNA1230,Pielweichs,Pielweichs,,"Uniper Kraftwerke GmbH ","An der Staustufe 1",94447,Plattling,Bayern,DE,12.6,,Hydro,Run-of-river,no,,1994,1994,,,operating,,49.79434,10.1813,,,,,0.8,"Renewable energy",Hydro,,no,"Schaltanlage vor Ort",20,"Bayernwerk AG",,
BNA1234,Prittriching,Prittriching,,"Uniper Kraftwerke GmbH ",Lechstraße,86931,Prittriching,Bayern,DE,12.1,,Hydro,Run-of-river,no,,1984,1984,,,operating,,48.21062,10.904933,,,,,0.8,"Renewable energy",Hydro,,no,"Schaltanlage vor Ort",20,"Bayernwerk AG",,
BNA0816,"KW Kaunertal",Prutz,,"TIWAG-Tiroler Wasserkraft AG",,A-6522,Prutz,Österreich,AT,392,,Hydro,Run-of-river,no,,1964,1964,,,operating,,47.067783,10.665211,11WATKAUN2HRWEAB,,,,0.8,"Renewable energy",Hydro,,no,"UW Prutz",220,"TIWAG-Netz AG/APG bzw. Amprion",,
BNA1235,Rain,,,"Bayerische Elektrizitätswerke GmbH",,86641,Rain,Bayern,DE,10.9,,Hydro,Run-of-river,no,,1955,1955,,,operating,,48.692383,10.897786,,,,,0.8,"Renewable energy",Hydro,,no,"UW Rain",20,"LEW Verteilnetz GmbH",,
BNA1239,Bertoldsheim,entfällt,,"Donau-Wasserkraft AG",,86643,Rennertshofen,Bayern,DE,18.9,,Hydro,Run-of-river,no,,1967,1967,,,operating,,48.735932,11.020923,,,,,0.8,"Renewable energy",Hydro,,no,"loco Kraftwerk","110, 16,7 Hz","DB Energie GmbH",,
BNA0835,"KW Rheinfelden","KW Rheinfelden","Rheinfelden / Rhein","Energiedienst AG",,79618,Rheinfelden,Baden-Württemberg,DE,46.7,116,Hydro,Run-of-river,no,,2010,2010,,,operating,,47.56990573,7.810113464,,,,,0.8,"Renewable energy",Hydro,,yes,"110-kV-Leitung Rheinfelden-KRS Süd",110,"ED Netze GmbH","List matching type: Single UBA power plant assigned to single BNetzA power plant",
BNA0859,"Rheinkraftwerk Ryburg-Schwörstadt ",Ryburg-Schwörstadt,"Schwörstadt-Ryburg 1 bis 4 / Rhein","EnBW Energie Baden-Württemberg AG","Postfach 1370",79603,Rheinfelden,Baden-Württemberg,DE,30,144,Hydro,Run-of-river,no,,1931,1931,1984,,operating,,47.585377,7.832657,,,,,0.8,"Renewable energy",Hydro,,no,"Ryburg-Schwörstadt bzw. CH",110,"Netze BW GmbH","List matching type: Single UBA power plant assigned to single BNetzA power plant",
BNA0839,Rosenheim,,,"VERBUND-Innkraftwerke GmbH","Ahornstr. 10",83101,Rohrdorf,Bayern,DE,35.1,,Hydro,Run-of-river,no,,1960,1960,,,operating,,47.83825,12.15333,,,,,0.8,"Renewable energy",Hydro,,no,"UW Rosenheim",110,"Bayernwerk AG",,
BNA0847,Roßhaupten,Roßhaupten,,"Uniper Kraftwerke GmbH ","Forggenseestraße 100",87672,Roßhaupten,Bayern,DE,45.5,,Hydro,Run-of-river,no,,1954,1954,,,operating,,47.651451,10.735525,,,,,0.8,"Renewable energy",Hydro,,no,"Schaltanlage vor Ort",110,"LEW Verteilnetz GmbH",,
BNA0854,Feldkirchen,,,"VERBUND-Innkraftwerke GmbH","Oberwöhrn 100",83543,Rott,Bayern,DE,38.2,,Hydro,Run-of-river,no,,1970,1970,,,operating,,47.96092,12.1561,,,,,0.8,"Renewable energy",Hydro,,no,"UW Feldkirchen",110,"Bayernwerk AG",,
BNA1245,Schwabstadl,Schwabstadl,,"Uniper Kraftwerke GmbH ",Zollhaus,86937,Scheuring,Bayern,DE,12,,Hydro,Run-of-river,no,,1981,1981,,,operating,,48.148375,10.867023,,,,,0.8,"Renewable energy",Hydro,,no,"Schaltanlage vor Ort",110,"Bayernwerk AG",,
BNA1246,Scheuring,Scheuring,,"Uniper Kraftwerke GmbH ",Lechau,86937,Scheuring,Bayern,DE,12.2,,Hydro,Run-of-river,no,,1980,1980,,,operating,,48.180229,10.8833102,,,,,0.8,"Renewable energy",Hydro,,no,"Schaltanlage vor Ort",110,"Bayernwerk AG",,
BNA0880,Detzem,,,"RWE Vertrieb AG",,54340,Schleich,Rheinland-Pfalz,DE,24,,Hydro,Run-of-river,no,,1962,1962,,,operating,,49.810941,6.843882,,,,,0.8,"Renewable energy",Hydro,,no,,110,"Westnetz GmbH",,
BNA0882,Bleiloch,"PSS A",,"Vattenfall Wasserkraft GmbH & Co.KG",Gräfenwarth,07907,Schleiz,Thüringen,DE,79.8,,Hydro,Run-of-river,no,,1932,1932,,,operating,,50.52438482,11.71438694,,,,,0.8,"Renewable energy",Hydro,,no,Remptendorf,110,"TEN Thüringer Energienetze GmbH",,
BNA0883,Bleiloch,"PSS B",,"Vattenfall Wasserkraft GmbH & Co.KG",Gräfenwarth,07907,Schleiz,Thüringen,DE,,,Hydro,Run-of-river,no,,1932,1932,,,operating,,50.52438482,11.71438694,,,,,0.8,"Renewable energy",Hydro,,no,Remptendorf,110,"TEN Thüringer Energienetze GmbH",,
BNA1247,Unterbergen,Unterbergen,,"Uniper Kraftwerke GmbH ",Lechfeldstraße,86511,Schmiechen-Unterbergen,Bayern,DE,12.4,,Hydro,Run-of-river,no,,1983,1983,,,operating,,48.237449,10.92718,,,,,0.8,"Renewable energy",Hydro,,no,"Schaltanlage vor Ort",110,"Bayernwerk AG",,
BNA1250,"UPM Schongau",Wasserkraft,,"UPM GmbH","Friedrich-Haindl-Strasse 10",86956,Schongau,Bayern,DE,10.5,,Hydro,Run-of-river,no,,1959,1959,,,operating,,47.803187,10.904254,,,,,0.8,"Renewable energy",Hydro,,yes,"UW UPM/Haindl",110,"LEW Verteilnetz GmbH",,
BNA1251,Dornau,Dornau,,"Uniper Kraftwerke GmbH ","Lechuferstraße 21",86956,Schongau,Bayern,DE,16.6,,Hydro,Run-of-river,no,,1960,1960,,,operating,,47.8001993,10.9026434,,,,,0.8,"Renewable energy",Hydro,,no,"Schaltanlage vor Ort",110,"Bayernwerk AG",,
BNA0906,"KW Silz",Silz,,"TIWAG-Tiroler Wasserkraft AG",,A-6424,Silz,Österreich,AT,500,,Hydro,Run-of-river,no,,1981,1981,,,operating,,47.269606,10.967829,11WD2SILT000157E,11WD2SIM2000159W,,,0.8,"Renewable energy",Hydro,,no,"UW Silz",220,"TIWAG-Netz AG/APG/TenneT",,
BNA0912,Teufelsbruck,,,"VERBUND-Innkraftwerke GmbH","Ponschabaustr. 25",83564,Soyen,Bayern,DE,25,,Hydro,Run-of-river,no,,1938,1938,,,operating,,48.05736,12.22093,,,,,0.8,"Renewable energy",Hydro,,no,"UW Teufelsbruck",110,"Bayernwerk AG",,
BNA0917,Schärding-Neuhaus,Schärding-Neuhaus,,"Innwerk AG","Badhöring 16",A-4782,"St. Florian am Inn",Österreich,AT,48,,Hydro,Run-of-river,no,,1963,1963,,,operating,,48.4356192,13.4415027,,,,,0.8,"Renewable energy",Hydro,,no,"Schaltanlage vor Ort",220,"APG/Bayernwerk AG",,
BNA0921,Stammham,,,"VERBUND-Innkraftwerke GmbH","Innstufenstr. 15",84533,Stammham,Bayern,DE,23.2,,Hydro,Run-of-river,no,,1955,1955,,,operating,,48.24932,12.86469,,,,,0.8,"Renewable energy",Hydro,,no,"UW Stammham",110,"Bayernwerk AG",,
BNA1263,Mühltal,Mühltal,,"Uniper Kraftwerke GmbH ","Mühltal 7",82064,Straßlach,Bayern,DE,11.2,,Hydro,Run-of-river,no,,1924,1924,,,operating,,47.99629724,11.48542787,,,,,0.8,"Renewable energy",Hydro,,no,"Schaltanlage vor Ort",20,"Bayernwerk AG",,
BNA0929,Straubing,Straubing,,"Rhein-Main-Donau AG","Kagerser Hauptstraße 164",94315,Straubing,Bayern,DE,21.5,,Hydro,Run-of-river,no,,1994,1994,,,operating,,48.89659,12.55752,,,,,0.8,"Renewable energy",Hydro,,no,"Schaltanlage vor Ort",20,"Bayernwerk AG",,
BNA1265,Tannheim,Tannheim,,"EnBW Energie Baden-Württemberg AG",,88459,Tannheim,Baden-Württemberg,DE,12.3,,Hydro,Run-of-river,no,,1923,1923,,,operating,,48.00795,10.118537,,,,,0.8,"Renewable energy",Hydro,,no,,20,"Netze BW GmbH",,
BNA1267,"Uppenborn 2",2,,"Stadtwerke München GmbH",,84184,Tiefenbach,Bayern,DE,18,,Hydro,Run-of-river,no,,1951,1951,,,operating,,48.515233,12.101041,,,,,0.8,"Renewable energy",Hydro,,no,"Schaltstelle Leitzachwerk",110,"SWM Infrastruktur GmbH",,
BNA0950,Töging,,,"VERBUND-Innkraftwerke GmbH","Werkstr. 18",84513,Töging,Bayern,DE,85.3,,Hydro,Run-of-river,no,,1924,1924,,,operating,,48.2518176,12.5873078,,,,,0.8,"Renewable energy",Hydro,,no,"UW Töging",110,"Bayernwerk AG",,
BNA0946b,"Kraftwerksgruppe Pfreimd","LWKW Tanzmühle",,"ENGIE Deutschland AG","Seestraße 6",92555,Trausnitz,Bayern,DE,3.3,,Hydro,Run-of-river,no,,1959,1959,,,operating,,49.55226,12.28127,,,,,0.8,"Renewable energy",Hydro,,yes,"KW Tanzmühle Feld J05",20,"Bayernwerk AG",,
BNA0946c,"Kraftwerksgruppe Pfreimd","LWKW Trausnitz",,"ENGIE Deutschland AG","Seestraße 6",92555,Trausnitz,Bayern,DE,1.8,,Hydro,Run-of-river,no,,1952,1952,,,operating,,49.55226,12.28127,,,,,0.8,"Renewable energy",Hydro,,yes,"KW Trausnitz Feld J04;J07",20,"Bayernwerk AG",,
BNA0946a,"Kraftwerksgruppe Pfreimd","PSKW Tanzmühle",,"ENGIE Deutschland AG","Seestraße 6",92555,Trausnitz,Bayern,DE,28,,Hydro,Run-of-river,no,,1959,1959,,,operating,,49.55226,12.28127,,,0.8,http://www.gdfsuez-energysales.de/sites/default/files/upload/dokumente/2013_gsed_aktivitaetenbericht.pdf,0.8,"Renewable energy",Hydro,,no,"UW Tanzmühle Schaltfeld E01",110,"Bayernwerk AG",,
BNA0953,"Kraftwerksgruppe Pfreimd","PSKW Reisach","Reisach 1 bis 3","ENGIE Deutschland AG","Seestraße 6",92555,Trausnitz,Bayern,DE,99,106.37,Hydro,"Pumped storage",no,,1955,1955,,,operating,,49.53002,12.28481,,,,,0.75,"Renewable energy",Hydro,,no,"UW Reisach Schaltfeld E03-E05",110,"Bayernwerk AG","List matching type: Single UBA power plant assigned to single BNetzA power plant",
BNA1269,Trier,,,"RWE Vertrieb AG",,54234,Trier,Rheinland-Pfalz,DE,18.8,,Hydro,Run-of-river,no,,1961,1961,,,operating,,49.728029,6.624451,,,,,0.8,"Renewable energy",Hydro,,no,,20,"Westnetz GmbH",,
BNA0954,Lünerseewerk,"Masch. 1 bis 5",,"EnBW Energie Baden-Württemberg AG",Latschauwerk,A-6774,Tschagguns,Österreich,AT,238,,Hydro,Run-of-river,no,,1957,1957,,,operating,,47.074251,9.874652,,,,,0.8,"Renewable energy",Hydro,,no,Bürs,220,"Transnet BW GmbH",,
BNA1466,"Kraftwerk 3",,,"Alzkraftwerke Heider GmbH","Mühlthal 1",84579,Unterneukirchen,Bayern,DE,18.5,,Hydro,Run-of-river,no,,1920,1920,,,operating,,48.15393,12.65242,,,,,0.8,"Renewable energy",Hydro,,no,"Schaltstelle 2",10,"AlzChem AG",,
BNA0972,"Leitzach 1",1,,"Stadtwerke München GmbH",,83620,Vagen,Bayern,DE,48,,Hydro,Run-of-river,no,,1983,1983,,,operating,,47.873938,11.87099,,,,,0.8,"Renewable energy",Hydro,,no,"Schaltstelle Leitzachwerk",110,"SWM Infrastruktur GmbH",,
BNA0973,"Leitzach 2",2,,"Stadtwerke München GmbH",,83620,Vagen,Bayern,DE,44,,Hydro,Run-of-river,no,,1960,1960,,,operating,,47.873938,11.87099,,,,,0.8,"Renewable energy",Hydro,,no,"Schaltstelle Leitzachwerk",110,"SWM Infrastruktur GmbH",,
BNA0974,"Rodundwerk I","Masch. 1 bis 4",,"EnBW Energie Baden-Württemberg AG",,A-6773,Vandans,Österreich,AT,198,,Hydro,Run-of-river,no,,1943,1943,,,operating,,47.084667,9.881156,,,,,0.8,"Renewable energy",Hydro,,no,Bürs,220,"Transnet BW GmbH",,
BNA0975,"Rodundwerk II","Masch. 1",,"EnBW Energie Baden-Württemberg AG",,A-6773,Vandans,Österreich,AT,295,,Hydro,Run-of-river,no,,2012,2012,,,operating,,47.084821,9.874559,11WD43VIWXHOILLM,11WD43ROW2H----I,,,0.8,"Renewable energy",Hydro,,no,Bürs,220,"Transnet BW GmbH",,
BNA1675,"PSW Vianden","Maschine 11",,"Société Electrique de l'Our S.A.","B.P. 2","L -9401",Vianden,Luxemburg,LU,195,,Hydro,Run-of-river,no,,2015,2015,,,operating,,49.945331,6.193905,11WD72VIA2H-KW-0,11WD72VIA2H--11P,,,0.8,"Renewable energy",Hydro,,no,Niederstedem,220,"Amprion GmbH",,
BNA0978,"PSW Vianden","Maschine 6",,"Société Electrique de l'Our S.A.","B.P. 2","L -9401",Vianden,Luxemburg,LU,100,,Hydro,Run-of-river,no,,1964,1964,,,operating,,49.9522709,6.178345597,11WD72VIA2H-KW-0,11WD7VIAN2H-2-6A,,,0.8,"Renewable energy",Hydro,,no,Niederstedem,220,"Amprion GmbH",,
BNA0979,"PSW Vianden","Maschine 7",,"Société Electrique de l'Our S.A.","B.P. 2","L -9401",Vianden,Luxemburg,LU,100,,Hydro,Run-of-river,no,,1964,1964,,,operating,,49.95201888,6.179156254,11WD72VIA2H-KW-0,11WD7VIAN2H-2-78,,,0.8,"Renewable energy",Hydro,,no,Niederstedem,220,"Amprion GmbH",,
BNA0980,"PSW Vianden","Maschine 8",,"Société Electrique de l'Our S.A.","B.P. 2","L -9401",Vianden,Luxemburg,LU,100,,Hydro,Run-of-river,no,,1963,1963,,,operating,,49.95207199,6.178963317,11WD72VIA2H-KW-0,11WD7VIAN2H-2-86,,,0.8,"Renewable energy",Hydro,,no,Niederstedem,220,"Amprion GmbH",,
BNA0981,"PSW Vianden","Maschine 9",,"Société Electrique de l'Our S.A.","B.P. 2","L -9401",Vianden,Luxemburg,LU,100,,Hydro,Run-of-river,no,,1964,1964,,,operating,,49.95213789,6.178759033,11WD72VIA2H-KW-0,11WD7VIAN2H-2-94,,,0.8,"Renewable energy",Hydro,,no,Niederstedem,220,"Amprion GmbH",,
BNA0982,"PSW Vianden","Maschine 1",,"Société Electrique de l'Our S.A.","B.P. 2","L -9401",Vianden,Luxemburg,LU,100,,Hydro,Run-of-river,no,,1962,1962,,,operating,,49.95223166,6.178480975,11WD72VIA2H-KW-0,11WD7VIAN2H-1-1O,,,0.8,"Renewable energy",Hydro,,no,Bauler,220,"Amprion GmbH",,
BNA0983,"PSW Vianden","Maschine 2",,"Société Electrique de l'Our S.A.","B.P. 2","L -9401",Vianden,Luxemburg,LU,100,,Hydro,Run-of-river,no,,1962,1962,,,operating,,49.95195168,6.179282718,11WD72VIA2H-KW-0,11WD7VIAN2H-1-2M,,,0.8,"Renewable energy",Hydro,,no,Bauler,220,"Amprion GmbH",,
BNA0984,"PSW Vianden","Maschine 3",,"Société Electrique de l'Our S.A.","B.P. 2","L -9401",Vianden,Luxemburg,LU,100,,Hydro,Run-of-river,no,,1963,1963,,,operating,,49.95265484,6.177741627,11WD72VIA2H-KW-0,11WD7VIAN2H-1-3K,,,0.8,"Renewable energy",Hydro,,no,Bauler,220,"Amprion GmbH",,
BNA0985,"PSW Vianden","Maschine 4",,"Société Electrique de l'Our S.A.","B.P. 2","L -9401",Vianden,Luxemburg,LU,100,,Hydro,Run-of-river,no,,1963,1963,,,operating,,49.95217851,6.178605006,11WD72VIA2H-KW-0,11WD7VIAN2H-1-4I,,,0.8,"Renewable energy",Hydro,,no,Bauler,220,"Amprion GmbH",,
BNA0986,"PSW Vianden","Maschine 5",,"Société Electrique de l'Our S.A.","B.P. 2","L -9401",Vianden,Luxemburg,LU,100,,Hydro,Run-of-river,no,,1963,1963,,,operating,,49.9522975,6.178249128,11WD72VIA2H-KW-0,11WD7VIAN2H-2-5C,,,0.8,"Renewable energy",Hydro,,no,Niederstedem,220,"Amprion GmbH",,
BNA0987,"PSW Vianden","Maschine 10",,"Société Electrique de l'Our S.A.","B.P. 2","L -9401",Vianden,Luxemburg,LU,196,,Hydro,Run-of-river,no,,1975,1975,,,operating,,49.95209356,6.178855501,11WD72VIA2H-KW-0,11WD72VIA2H--10R,,,0.8,"Renewable energy",Hydro,,no,Niederstedem,220,"Amprion GmbH",,
BNA0996,Vohburg,entfällt,,"Donau-Wasserkraft AG",,85088,Vohburg,Bayern,DE,23.3,,Hydro,Run-of-river,no,,1992,1992,,,operating,,48.778103,11.60119,,,,,0.8,"Renewable energy",Hydro,,no,"loco Kraftwerk","110, 16,7 Hz","DB Energie GmbH",,
BNA1273,Obernach,Obernach,,"Uniper Kraftwerke GmbH ",Einsiedl,82432,Walchensee,Bayern,DE,12.8,,Hydro,Run-of-river,no,,1955,1955,,,operating,,47.554694,11.291366,,,,,0.8,"Renewable energy",Hydro,,no,"Schaltanlage vor Ort",20,"Bayernwerk AG",,
BNA1003,"Kraftwerk Waldshut",Waldshut,"Waldshut 1 bis 4","Schluchseewerk Aktiengesellschaft","Kraftwerkstraße 13",79761,Waldshut-Tiengen,Baden-Württemberg,DE,150,176,Hydro,"Pumped storage",no,,1951,1951,,,operating,,47.61777,8.1926,,,,,0.75,"Renewable energy",Hydro,,no,Gurtweil,110,"Netze BW GmbH","List matching type: Single UBA power plant assigned to single BNetzA power plant",
BNA1274,Ettling,Ettling,,"Uniper Kraftwerke GmbH ","Kraftwerkstraße 1",94522,Wallersorf/Ettling,Bayern,DE,12.6,,Hydro,Run-of-river,no,,1988,1988,,,operating,,48.6960722,12.7977619,,,,,0.8,"Renewable energy",Hydro,,no,"Schaltanlage vor Ort",110,"Bayernwerk AG",,
BNA1008,"Uppenborn 1",1,,"Stadtwerke München GmbH",,85368,Wang,Bayern,DE,25,,Hydro,Run-of-river,no,,1930,1930,,,operating,,48.473474,11.95481,,,,,0.8,"Renewable energy",Hydro,,no,"Schaltstelle Leitzachwerk",110,"SWM Infrastruktur GmbH",,
BNA1013,Wasserburg,,,"VERBUND-Innkraftwerke GmbH","Innwerkstr. 15",83512,Wasserburg,Bayern,DE,24.1,,Hydro,Run-of-river,no,,1938,1938,,,operating,,48.05699,12.22074,,,,,0.8,"Renewable energy",Hydro,,no,"UW Wasserburg",110,"Bayernwerk AG",,
BNA1019,Wehr,Wehr,"Wehr 1, Wehr 2, Wehr 3, Wehr 4","Schluchseewerk Aktiengesellschaft","Todtmooserstr. 150",79664,Wehr,Baden-Württemberg,DE,910,992,Hydro,"Pumped storage",no,,1975,1975,,,operating,,47.64529898,7.91819945,11WD4SWSW5HD7--F,11WD4WEHR1HD7--M,,,0.75,"Renewable energy",Hydro,,no,Kühmoos,380,"Amprion/Transnet BW","List matching type: Multiple UBA capacities aggregated to single BNetzA power plant",
BNA1031,Wendefurth,"PSS A",,"Vattenfall Wasserkraft GmbH & Co.KG",Hangstraße,38889,Wendefurth,Sachsen-Anhalt,DE,79.7,,Hydro,Run-of-river,no,,1967,1967,,,operating,,51.74223,10.91879,,,0.73,http://www.stromtip.de/rubrik2/20223/Reportage-Pumpspeicherwerke-sollen-ein-Eckpfeiler-der-Energiewende-werden.html,0.8,"Renewable energy",Hydro,,no,Hüttenrode,110,"HSN Magdeburg GmbH",,
BNA1032,Wendefurth,"PSS B",,"Vattenfall Wasserkraft GmbH & Co.KG",Hangstraße,38889,Wendefurth,Sachsen-Anhalt,DE,,,Hydro,Run-of-river,no,,1968,1968,,,operating,,51.74223,10.91879,,,0.73,http://www.stromtip.de/rubrik2/20223/Reportage-Pumpspeicherwerke-sollen-ein-Eckpfeiler-der-Energiewende-werden.html,0.8,"Renewable energy",Hydro,,no,Hüttenrode,110,"HSN Magdeburg GmbH",,
BNA1066,Wintrich,,,"RWE Vertrieb AG",,54487,Wintrich,Rheinland-Pfalz,DE,20,,Hydro,Run-of-river,no,,1965,1965,,,operating,,49.879784,6.948762,,,,,0.8,"Renewable energy",Hydro,,no,,20,"Westnetz GmbH",,
